{
"type": "FeatureCollection",
"name": "pennsylvania_prisons",
"crs": { "type": "name", "properties": { "name": "urn:ogc:def:crs:OGC:1.3:CRS84" } },
"features": [
{ "type": "Feature", "properties": { "name": "SCI Albion", "jurisdiction": "Pennsylvania", "agency": "Pennsylvania Department of Corrections", "street_address": "10745 Route 18", "city": "Albion", "state": "PA", "zip_code": "16475-0001", "phone": "(814) 756-5778", "fax": null, "superintendent": "John Sawtelle", "deputy_superintendent_centralized": "Kurt Suesser", "deputy_superintendent_facilities": null, "business_manager": null, "assistant": null, "acres_inside": 56.0, "acres_outside": 290.0, "operational_structures": 25.0, "housing_units": 10.0, "employees": 605.0, "facility_url": "https://www.pa.gov/agencies/cor/state-prisons/sci-albion", "programs": [ ], "latitude": 41.8793938, "longitude": -80.364473 }, "geometry": { "type": "Point", "coordinates": [ -80.364473, 41.8793938 ] } },
{ "type": "Feature", "properties": { "name": "SCI Benner Township", "jurisdiction": "Pennsylvania", "agency": "Pennsylvania Department of Corrections", "street_address": "​301 Institution Drive", "city": "Bellefonte", "state": "PA", "zip_code": "16823", "phone": "(814) 353-3630", "fax": null, "superintendent": null, "deputy_superintendent_centralized": "Jennifer Rossman", "deputy_superintendent_facilities": null, "business_manager": "Adam Beck", "assistant": null, "acres_inside": 46.0, "acres_outside": 42.0, "operational_structures": 26.0, "housing_units": 10.0, "employees": null, "facility_url": "https://www.pa.gov/agencies/cor/state-prisons/sci-benner-twp", "programs": [ ], "latitude": 40.8591709, "longitude": -77.7780817 }, "geometry": { "type": "Point", "coordinates": [ -77.7780817, 40.8591709 ] } },
{ "type": "Feature", "properties": { "name": "SCI Cambridge Springs", "jurisdiction": "Pennsylvania", "agency": "Pennsylvania Department of Corrections", "street_address": "​451 Fullerton AvenueCambridge", "city": "Springs", "state": "PA", "zip_code": "16403-1238", "phone": "(814) 398-5400", "fax": null, "superintendent": "Lisa Graves", "deputy_superintendent_centralized": "Valerie Kusiak", "deputy_superintendent_facilities": null, "business_manager": "Heather Taylor", "assistant": "Amy Boylan", "acres_inside": 40.0, "acres_outside": 85.0, "operational_structures": 18.0, "housing_units": 6.0, "employees": 352.0, "facility_url": "https://www.pa.gov/agencies/cor/state-prisons/sci-cambridge-springs", "programs": [ ], "latitude": 41.7971335, "longitude": -80.0541068 }, "geometry": { "type": "Point", "coordinates": [ -80.0541068, 41.7971335 ] } },
{ "type": "Feature", "properties": { "name": "SCI Camp Hill", "jurisdiction": "Pennsylvania", "agency": "Pennsylvania Department of Corrections", "street_address": "2500 Lisburn RoadCamp", "city": "Hill", "state": "PA", "zip_code": "17011", "phone": "(717) 737-4531", "fax": null, "superintendent": null, "deputy_superintendent_centralized": null, "deputy_superintendent_facilities": null, "business_manager": null, "assistant": null, "acres_inside": 52.0, "acres_outside": 711.0, "operational_structures": 44.0, "housing_units": 20.0, "employees": null, "facility_url": "https://www.pa.gov/agencies/cor/state-prisons/sci-camp-hill", "programs": [ ], "latitude": 40.2159261, "longitude": -76.9265895 }, "geometry": { "type": "Point", "coordinates": [ -76.9265895, 40.2159261 ] } },
{ "type": "Feature", "properties": { "name": "SCI Chester", "jurisdiction": "Pennsylvania", "agency": "Pennsylvania Department of Corrections", "street_address": "500 E. 4th Street", "city": "Chester", "state": "PA", "zip_code": "19013", "phone": "(610) 490-5412", "fax": null, "superintendent": "Gina Clark", "deputy_superintendent_centralized": "Keith Miller", "deputy_superintendent_facilities": "Laura Hoffman-ReedAssistant", "business_manager": null, "assistant": "Vacant", "acres_inside": null, "acres_outside": null, "operational_structures": 2.0, "housing_units": 14.0, "employees": null, "facility_url": "https://www.pa.gov/agencies/cor/state-prisons/sci-chester", "programs": [ ], "latitude": 39.8508416, "longitude": -75.3523313 }, "geometry": { "type": "Point", "coordinates": [ -75.3523313, 39.8508416 ] } },
{ "type": "Feature", "properties": { "name": "SCI Coal Township", "jurisdiction": "Pennsylvania", "agency": "Pennsylvania Department of Corrections", "street_address": "​1 Kelley DriveCoal", "city": "Township", "state": "PA", "zip_code": "17866-1020", "phone": "(570) 644-7890", "fax": null, "superintendent": "Tom McGinley", "deputy_superintendent_centralized": "Karen Merritt-Scully", "deputy_superintendent_facilities": "Victor Mirarchi", "business_manager": null, "assistant": null, "acres_inside": 43.0, "acres_outside": 183.0, "operational_structures": 34.0, "housing_units": 10.0, "employees": 568.0, "facility_url": "https://www.pa.gov/agencies/cor/state-prisons/sci-coal-township", "programs": [ ], "latitude": 40.8064544, "longitude": -76.5552291 }, "geometry": { "type": "Point", "coordinates": [ -76.5552291, 40.8064544 ] } },
{ "type": "Feature", "properties": { "name": "SCI Dallas", "jurisdiction": "Pennsylvania", "agency": "Pennsylvania Department of Corrections", "street_address": "1000 Follies Road", "city": "Dallas", "state": "PA", "zip_code": "18612-0286", "phone": "(570) 675-1101", "fax": null, "superintendent": "Jasen Bohinski", "deputy_superintendent_centralized": "Jeffrey Gibson", "deputy_superintendent_facilities": "Ricardo Contreras", "business_manager": null, "assistant": null, "acres_inside": 26.0, "acres_outside": 1.0, "operational_structures": 51.0, "housing_units": 17.0, "employees": 685.0, "facility_url": "https://www.pa.gov/agencies/cor/state-prisons/sci-dallas", "programs": [ ], "latitude": 41.2949908, "longitude": -75.9886161 }, "geometry": { "type": "Point", "coordinates": [ -75.9886161, 41.2949908 ] } },
{ "type": "Feature", "properties": { "name": "SCI Fayette", "jurisdiction": "Pennsylvania", "agency": "Pennsylvania Department of Corrections", "street_address": "50 Overlook DriveLa", "city": "Belle", "state": "PA", "zip_code": "15450", "phone": "(724) 364-2200", "fax": null, "superintendent": "Tina Walker", "deputy_superintendent_centralized": "Martin Switzer", "deputy_superintendent_facilities": "Michael Tkacs", "business_manager": "Tiffany Pauley", "assistant": null, "acres_inside": 53.0, "acres_outside": 203.0, "operational_structures": 24.0, "housing_units": 11.0, "employees": 648.0, "facility_url": "https://www.pa.gov/agencies/cor/state-prisons/sci-fayette", "programs": [ ], "latitude": 40.0003823, "longitude": -79.9881499 }, "geometry": { "type": "Point", "coordinates": [ -79.9881499, 40.000382300000012 ] } },
{ "type": "Feature", "properties": { "name": "SCI Forest", "jurisdiction": "Pennsylvania", "agency": "Pennsylvania Department of Corrections", "street_address": "286 Woodland Drive", "city": "Marienville", "state": "PA", "zip_code": "16239", "phone": "(814) 621-2110", "fax": null, "superintendent": null, "deputy_superintendent_centralized": "Ian Gustafson", "deputy_superintendent_facilities": null, "business_manager": null, "assistant": null, "acres_inside": 45.0, "acres_outside": 68.0, "operational_structures": 28.0, "housing_units": 11.0, "employees": 684.0, "facility_url": "https://www.pa.gov/agencies/cor/state-prisons/sci-forest", "programs": [ ], "latitude": 41.4815901, "longitude": -79.0975329 }, "geometry": { "type": "Point", "coordinates": [ -79.0975329, 41.4815901 ] } },
{ "type": "Feature", "properties": { "name": "SCI Frackville", "jurisdiction": "Pennsylvania", "agency": "Pennsylvania Department of Corrections", "street_address": "1111 Altamont Boulevard", "city": "Frackville", "state": "PA", "zip_code": "17931-2699", "phone": "(570) 874-4516", "fax": null, "superintendent": "Kathy Brittain", "deputy_superintendent_centralized": null, "deputy_superintendent_facilities": null, "business_manager": "Amanda Cromyak", "assistant": null, "acres_inside": 35.0, "acres_outside": 174.0, "operational_structures": 15.0, "housing_units": 6.0, "employees": 442.0, "facility_url": "https://www.pa.gov/agencies/cor/state-prisons/sci-frackville", "programs": [ ], "latitude": 40.7724572, "longitude": -76.2202263 }, "geometry": { "type": "Point", "coordinates": [ -76.2202263, 40.7724572 ] } },
{ "type": "Feature", "properties": { "name": "SCI Greene", "jurisdiction": "Pennsylvania", "agency": "Pennsylvania Department of Corrections", "street_address": "169 Progress Drive", "city": "Waynesburg", "state": "PA", "zip_code": "15370", "phone": "(724) 852-2902", "fax": null, "superintendent": null, "deputy_superintendent_centralized": null, "deputy_superintendent_facilities": null, "business_manager": "Tiffany Pauley", "assistant": null, "acres_inside": 44.0, "acres_outside": 84.0, "operational_structures": 33.0, "housing_units": 11.0, "employees": 670.0, "facility_url": "https://www.pa.gov/agencies/cor/state-prisons/sci-greene", "programs": [ ], "latitude": 39.9056703, "longitude": -80.1365778 }, "geometry": { "type": "Point", "coordinates": [ -80.1365778, 39.9056703 ] } },
{ "type": "Feature", "properties": { "name": "SCI Houtzdale", "jurisdiction": "Pennsylvania", "agency": "Pennsylvania Department of Corrections", "street_address": "209 Institution Drive", "city": "Houtzdale", "state": "PA", "zip_code": "16698-1000", "phone": "(814) 378-1000", "fax": null, "superintendent": null, "deputy_superintendent_centralized": "Christian Garman", "deputy_superintendent_facilities": "James James", "business_manager": null, "assistant": null, "acres_inside": null, "acres_outside": null, "operational_structures": null, "housing_units": 11.0, "employees": null, "facility_url": "https://www.pa.gov/agencies/cor/state-prisons/sci-houtzdale", "programs": [ ], "latitude": 40.8129284, "longitude": -78.3579762 }, "geometry": { "type": "Point", "coordinates": [ -78.3579762, 40.8129284 ] } },
{ "type": "Feature", "properties": { "name": "SCI Huntingdon", "jurisdiction": "Pennsylvania", "agency": "Pennsylvania Department of Corrections", "street_address": "1100 Pike Street", "city": "Huntingdon", "state": "PA", "zip_code": "16654-1112", "phone": "(814) 643-2400", "fax": null, "superintendent": "John Rivello", "deputy_superintendent_centralized": "Jill Spyker", "deputy_superintendent_facilities": "Walter House (acting)", "business_manager": null, "assistant": null, "acres_inside": null, "acres_outside": null, "operational_structures": 76.0, "housing_units": 14.0, "employees": 660.0, "facility_url": "https://www.pa.gov/agencies/cor/state-prisons/sci-huntingdon", "programs": [ ], "latitude": 40.4916962, "longitude": -78.0277305 }, "geometry": { "type": "Point", "coordinates": [ -78.0277305, 40.4916962 ] } },
{ "type": "Feature", "properties": { "name": "SCI Laurel Highlands", "jurisdiction": "Pennsylvania", "agency": "Pennsylvania Department of Corrections", "street_address": "5706 Glades Pike", "city": "Somerset", "state": "PA", "zip_code": "15501", "phone": "(814) 445-6501", "fax": null, "superintendent": "Melissa Hainsworth", "deputy_superintendent_centralized": "Melanie Pyle", "deputy_superintendent_facilities": null, "business_manager": "Gina Hinebaugh", "assistant": null, "acres_inside": 52.0, "acres_outside": 81.0, "operational_structures": 35.0, "housing_units": 9.0, "employees": 598.0, "facility_url": "https://www.pa.gov/agencies/cor/state-prisons/sci-laurel-highlands", "programs": [ ], "latitude": 40.0059302, "longitude": -79.0406762 }, "geometry": { "type": "Point", "coordinates": [ -79.0406762, 40.0059302 ] } },
{ "type": "Feature", "properties": { "name": "SCI Mahanoy", "jurisdiction": "Pennsylvania", "agency": "Pennsylvania Department of Corrections", "street_address": "301 Grey Line Drive", "city": "Frackville", "state": "PA", "zip_code": "17931", "phone": "(570) 773-2158", "fax": null, "superintendent": null, "deputy_superintendent_centralized": "Thomas Sokaloski", "deputy_superintendent_facilities": "Jeffrey Eyer", "business_manager": "Amanda Cromyak", "assistant": null, "acres_inside": 67.0, "acres_outside": 155.0, "operational_structures": 35.0, "housing_units": 11.0, "employees": null, "facility_url": "https://www.pa.gov/agencies/cor/state-prisons/sci-mahanoy", "programs": [ ], "latitude": 40.7827337, "longitude": -76.225695 }, "geometry": { "type": "Point", "coordinates": [ -76.225695, 40.7827337 ] } },
{ "type": "Feature", "properties": { "name": "SCI Mercer", "jurisdiction": "Pennsylvania", "agency": "Pennsylvania Department of Corrections", "street_address": "801 Butler Pike", "city": "Mercer", "state": "PA", "zip_code": "16137", "phone": "(724) 662-1837", "fax": null, "superintendent": null, "deputy_superintendent_centralized": null, "deputy_superintendent_facilities": "John Oliver", "business_manager": null, "assistant": null, "acres_inside": 37.0, "acres_outside": 252.0, "operational_structures": 39.0, "housing_units": 13.0, "employees": 485.0, "facility_url": "https://www.pa.gov/agencies/cor/state-prisons/sci-mercer", "programs": [ ], "latitude": 41.2070069, "longitude": -80.2203422 }, "geometry": { "type": "Point", "coordinates": [ -80.2203422, 41.2070069 ] } },
{ "type": "Feature", "properties": { "name": "SCI Muncy", "jurisdiction": "Pennsylvania", "agency": "Pennsylvania Department of Corrections", "street_address": "6454 Route 405", "city": "Muncy", "state": "PA", "zip_code": "17756", "phone": "(570) 546-3171", "fax": null, "superintendent": null, "deputy_superintendent_centralized": "William Frantz", "deputy_superintendent_facilities": "Nicole McKee", "business_manager": "Cynthia Troup", "assistant": null, "acres_inside": 30.0, "acres_outside": 763.0, "operational_structures": 75.0, "housing_units": 16.0, "employees": null, "facility_url": "https://www.pa.gov/agencies/cor/state-prisons/sci-muncy", "programs": [ ], "latitude": 41.199542, "longitude": -76.8186131 }, "geometry": { "type": "Point", "coordinates": [ -76.8186131, 41.199542 ] } },
{ "type": "Feature", "properties": { "name": "SCI Phoenix", "jurisdiction": "Pennsylvania", "agency": "Pennsylvania Department of Corrections", "street_address": "1200 Mokychic Drive", "city": "Collegeville", "state": "PA", "zip_code": "19426", "phone": null, "fax": null, "superintendent": "Joseph Terra", "deputy_superintendent_centralized": "Charles Hensley", "deputy_superintendent_facilities": "Nathan Wynder", "business_manager": "Matthew Baillie", "assistant": null, "acres_inside": 164.0, "acres_outside": 1.0, "operational_structures": 18.0, "housing_units": null, "employees": 1.0, "facility_url": "https://www.pa.gov/agencies/cor/state-prisons/sci-phoenix", "programs": [ ], "latitude": 40.2293735, "longitude": -75.4213621 }, "geometry": { "type": "Point", "coordinates": [ -75.4213621, 40.2293735 ] } },
{ "type": "Feature", "properties": { "name": "SCI Pine Grove", "jurisdiction": "Pennsylvania", "agency": "Pennsylvania Department of Corrections", "street_address": "189 Fyock Road", "city": "Indiana", "state": "PA", "zip_code": "15701", "phone": "(724) 465-9630", "fax": null, "superintendent": "Mark Brothers", "deputy_superintendent_centralized": "Martha Cree", "deputy_superintendent_facilities": "Larry Shaw Jr.", "business_manager": null, "assistant": null, "acres_inside": 29.0, "acres_outside": 82.0, "operational_structures": 21.0, "housing_units": 8.0, "employees": 491.0, "facility_url": "https://www.pa.gov/agencies/cor/state-prisons/sci-pine-grove", "programs": [ ], "latitude": 40.6476337, "longitude": -79.1021733 }, "geometry": { "type": "Point", "coordinates": [ -79.1021733, 40.6476337 ] } },
{ "type": "Feature", "properties": { "name": "SCI Rockview", "jurisdiction": "Pennsylvania", "agency": "Pennsylvania Department of Corrections", "street_address": "1 Rockview Place", "city": "Bellefonte", "state": "PA", "zip_code": "16823", "phone": "(814) 355-4874", "fax": null, "superintendent": "Bobbi Salamon", "deputy_superintendent_centralized": "Timothy Miller (Acting)", "deputy_superintendent_facilities": "Mike Rowe", "business_manager": "Adam Beck", "assistant": null, "acres_inside": 31.0, "acres_outside": 5.0, "operational_structures": 73.0, "housing_units": 9.0, "employees": 635.0, "facility_url": "https://www.pa.gov/agencies/cor/state-prisons/sci-rockview", "programs": [ ], "latitude": 40.8499133, "longitude": -77.7764532 }, "geometry": { "type": "Point", "coordinates": [ -77.7764532, 40.8499133 ] } },
{ "type": "Feature", "properties": { "name": "SCI Smithfield", "jurisdiction": "Pennsylvania", "agency": "Pennsylvania Department of Corrections", "street_address": "1120 Pike Street", "city": "Huntingdon", "state": "PA", "zip_code": "16652", "phone": "(814) 643-6520", "fax": null, "superintendent": "Kenneth Shea (Acting)", "deputy_superintendent_centralized": "Matthew Pyo", "deputy_superintendent_facilities": "Kenneth Shea", "business_manager": null, "assistant": null, "acres_inside": null, "acres_outside": null, "operational_structures": null, "housing_units": null, "employees": null, "facility_url": "https://www.pa.gov/agencies/cor/state-prisons/sci-smithfield", "programs": [ ], "latitude": 40.4904445, "longitude": -78.0266943 }, "geometry": { "type": "Point", "coordinates": [ -78.0266943, 40.4904445 ] } },
{ "type": "Feature", "properties": { "name": "SCI Somerset", "jurisdiction": "Pennsylvania", "agency": "Pennsylvania Department of Corrections", "street_address": "1590 Walters Mill Road", "city": "Somerset", "state": "PA", "zip_code": "15510-0001", "phone": "(814) 443-8100", "fax": null, "superintendent": "Ken Hollibaugh", "deputy_superintendent_centralized": null, "deputy_superintendent_facilities": "Dan Caro", "business_manager": "Gina Hinebaugh", "assistant": null, "acres_inside": 63.0, "acres_outside": 300.0, "operational_structures": null, "housing_units": 10.0, "employees": 652.0, "facility_url": "https://www.pa.gov/agencies/cor/state-prisons/sci-somerset", "programs": [ ], "latitude": 39.9630686, "longitude": -79.0367497 }, "geometry": { "type": "Point", "coordinates": [ -79.0367497, 39.9630686 ] } },
{ "type": "Feature", "properties": { "name": "SCI Waymart", "jurisdiction": "Pennsylvania", "agency": "Pennsylvania Department of Corrections", "street_address": "11 Farview Drive", "city": "Waymart", "state": "PA", "zip_code": "18472", "phone": "(570) 488-5811", "fax": null, "superintendent": "Mark Wahl", "deputy_superintendent_centralized": null, "deputy_superintendent_facilities": "Reed Davy", "business_manager": "Michelle Bednar", "assistant": null, "acres_inside": 19.0, "acres_outside": 325.0, "operational_structures": null, "housing_units": 25.0, "employees": 822.0, "facility_url": "https://www.pa.gov/agencies/cor/state-prisons/sci-waymart", "programs": [ ], "latitude": 41.5744519, "longitude": -75.4323893 }, "geometry": { "type": "Point", "coordinates": [ -75.4323893, 41.5744519 ] } }
]
}
