{
"type": "FeatureCollection",
"name": "california_prisons",
"crs": { "type": "name", "properties": { "name": "urn:ogc:def:crs:OGC:1.3:CRS84" } },
"features": [
{ "type": "Feature", "properties": { "name": "Avenal State Prison", "acronym": "ASP", "street_address": "#1\nKings Way", "city": "Avenal", "state": "CA", "zip_code": "93204", "phone": "(559) 386-0587", "facility_url": "https://www.cdcr.ca.gov/facility-locator/asp/", "jurisdiction": "California", "agency": "CDCR", "latitude": 35.9761958, "longitude": -120.1184142 }, "geometry": { "type": "Point", "coordinates": [ -120.1184142, 35.9761958 ] } },
{ "type": "Feature", "properties": { "name": "California Correctional Institution", "acronym": "CCI", "street_address": "24900\nHighway 202", "city": "Tehachapi", "state": "CA", "zip_code": "93561", "phone": "(661) 822-4402", "facility_url": "https://www.cdcr.ca.gov/facility-locator/cci/", "jurisdiction": "California", "agency": "CDCR", "latitude": 35.1133011, "longitude": -118.5694869 }, "geometry": { "type": "Point", "coordinates": [ -118.5694869, 35.1133011 ] } },
{ "type": "Feature", "properties": { "name": "California Health Care Facility, Stockton", "acronym": "CHCF", "street_address": "California\nHealth Care Facility\n7707 Austin Road", "city": "Stockton", "state": "CA", "zip_code": "95215", "phone": "(209) 467-2500", "facility_url": "https://www.cdcr.ca.gov/facility-locator/chcf/", "jurisdiction": "California", "agency": "CDCR", "latitude": 37.8972065, "longitude": -121.1864019 }, "geometry": { "type": "Point", "coordinates": [ -121.1864019, 37.8972065 ] } },
{ "type": "Feature", "properties": { "name": "California\nInstitution for Men", "acronym": "CIM", "street_address": "14901\nCentral Avenue", "city": "Chino", "state": "CA", "zip_code": "91710", "phone": "(909) 597-1821", "facility_url": "https://www.cdcr.ca.gov/facility-locator/cim/", "jurisdiction": "California", "agency": "CDCR", "latitude": 33.9846612, "longitude": -117.6801513 }, "geometry": { "type": "Point", "coordinates": [ -117.6801513, 33.9846612 ] } },
{ "type": "Feature", "properties": { "name": "California\nInstitution for Women", "acronym": "CIW", "street_address": "16756\nChino-Corona Road", "city": "Corona", "state": "CA", "zip_code": "92880", "phone": "(909) 597-1771", "facility_url": "https://www.cdcr.ca.gov/facility-locator/ciw/", "jurisdiction": "California", "agency": "CDCR", "latitude": 33.9490314, "longitude": -117.6361501 }, "geometry": { "type": "Point", "coordinates": [ -117.6361501, 33.9490314 ] } },
{ "type": "Feature", "properties": { "name": "California\nMen’s Colony", "acronym": "CMC", "street_address": "Highway\n1", "city": "San Luis Obispo", "state": "CA", "zip_code": "93409", "phone": "(805) 547-7900", "facility_url": "https://www.cdcr.ca.gov/facility-locator/cmc/", "jurisdiction": "California", "agency": "CDCR", "latitude": 35.2707623, "longitude": -120.6726942 }, "geometry": { "type": "Point", "coordinates": [ -120.6726942, 35.2707623 ] } },
{ "type": "Feature", "properties": { "name": "California\nMedical Facility", "acronym": "CMF", "street_address": "1600\nCalifornia Dr.", "city": "Vacaville", "state": "CA", "zip_code": "95696", "phone": "(707) 448-6841", "facility_url": "https://www.cdcr.ca.gov/facility-locator/cmf/", "jurisdiction": "California", "agency": "CDCR", "latitude": 38.3282848, "longitude": -121.9800137 }, "geometry": { "type": "Point", "coordinates": [ -121.9800137, 38.3282848 ] } },
{ "type": "Feature", "properties": { "name": "California Rehabilitation Center", "acronym": "CRC", "street_address": "5th\nStreet & Western", "city": "Norco", "state": "CA", "zip_code": "92860", "phone": "(951) 737-2683", "facility_url": "https://www.cdcr.ca.gov/facility-locator/crc/", "jurisdiction": "California", "agency": "CDCR", "latitude": 33.9311526, "longitude": -117.5539009 }, "geometry": { "type": "Point", "coordinates": [ -117.5539009, 33.9311526 ] } },
{ "type": "Feature", "properties": { "name": "California State Prison, Corcoran", "acronym": "COR", "street_address": "4001\nKing Avenue", "city": "Corcoran", "state": "CA", "zip_code": "93212", "phone": "(559) 992-8800", "facility_url": "https://www.cdcr.ca.gov/facility-locator/cor/", "jurisdiction": "California", "agency": "CDCR", "latitude": 36.0597221, "longitude": -119.5547787 }, "geometry": { "type": "Point", "coordinates": [ -119.5547787, 36.0597221 ] } },
{ "type": "Feature", "properties": { "name": "California State Prison, Los Angeles County", "acronym": "LAC", "street_address": "44750\n60th Street West", "city": "Lancaster", "state": "CA", "zip_code": "93536-7620", "phone": "(661) 729-2000", "facility_url": "https://www.cdcr.ca.gov/facility-locator/lac/", "jurisdiction": "California", "agency": "CDCR", "latitude": 34.6963925, "longitude": -118.2278871 }, "geometry": { "type": "Point", "coordinates": [ -118.2278871, 34.6963925 ] } },
{ "type": "Feature", "properties": { "name": "California State Prison, Sacramento", "acronym": "SAC", "street_address": "100\nPrison Road", "city": "Represa", "state": "CA", "zip_code": "95671", "phone": "(916) 985-8610", "facility_url": "https://www.cdcr.ca.gov/facility-locator/sac/", "jurisdiction": "California", "agency": "CDCR", "latitude": 38.6949799, "longitude": -121.1531404 }, "geometry": { "type": "Point", "coordinates": [ -121.1531404, 38.6949799 ] } },
{ "type": "Feature", "properties": { "name": "California\nState Prison, Solano", "acronym": "SOL", "street_address": "2100\nPeabody Road", "city": "Vacaville", "state": "CA", "zip_code": "95696", "phone": "(707) 451-0182", "facility_url": "https://www.cdcr.ca.gov/facility-locator/sol/", "jurisdiction": "California", "agency": "CDCR", "latitude": 38.3205271, "longitude": -121.974327 }, "geometry": { "type": "Point", "coordinates": [ -121.974327, 38.3205271 ] } },
{ "type": "Feature", "properties": { "name": "Calipatria\nState Prison", "acronym": "CAL", "street_address": "7018\nBlair Road", "city": "Calipatria", "state": "CA", "zip_code": "92233", "phone": "(760) 348-7000", "facility_url": "https://www.cdcr.ca.gov/facility-locator/cal/", "jurisdiction": "California", "agency": "CDCR", "latitude": 33.1636907, "longitude": -115.4927772 }, "geometry": { "type": "Point", "coordinates": [ -115.4927772, 33.1636907 ] } },
{ "type": "Feature", "properties": { "name": "California\nState Prison, Centinela", "acronym": "CEN", "street_address": "2302\nBrown Road", "city": "Imperial", "state": "CA", "zip_code": "92251", "phone": "(760) 337-7900", "facility_url": "https://www.cdcr.ca.gov/facility-locator/cen/", "jurisdiction": "California", "agency": "CDCR", "latitude": 32.7957418, "longitude": -115.7739497 }, "geometry": { "type": "Point", "coordinates": [ -115.7739497, 32.7957418 ] } },
{ "type": "Feature", "properties": { "name": "Central\nCalifornia Women’s Facility", "acronym": "CCWF", "street_address": "23370\nRoad 22", "city": "Chowchilla", "state": "CA", "zip_code": "93610", "phone": "(559) 665-5531", "facility_url": "https://www.cdcr.ca.gov/facility-locator/ccwf/", "jurisdiction": "California", "agency": "CDCR", "latitude": 37.0899649, "longitude": -120.1497839 }, "geometry": { "type": "Point", "coordinates": [ -120.1497839, 37.0899649 ] } },
{ "type": "Feature", "properties": { "name": "Correctional\nTraining Facility", "acronym": "CTF", "street_address": "Highway\n101 North *", "city": "Soledad", "state": "CA", "zip_code": "93960", "phone": "(831) 678-3951", "facility_url": "https://www.cdcr.ca.gov/facility-locator/ctf/", "jurisdiction": "California", "agency": "CDCR", "latitude": 36.4316829, "longitude": -121.3374549 }, "geometry": { "type": "Point", "coordinates": [ -121.3374549, 36.4316829 ] } },
{ "type": "Feature", "properties": { "name": "Folsom\nState Prison", "acronym": "FSP", "street_address": "300\nPrison Road", "city": "Represa", "state": "CA", "zip_code": "95671", "phone": "(916) 985-2561", "facility_url": "https://www.cdcr.ca.gov/facility-locator/fsp/", "jurisdiction": "California", "agency": "CDCR", "latitude": 38.6961338, "longitude": -121.1645661 }, "geometry": { "type": "Point", "coordinates": [ -121.1645661, 38.6961338 ] } },
{ "type": "Feature", "properties": { "name": "High\nDesert State Prison", "acronym": "HDSP", "street_address": "475-750\nRice Canyon Rd.", "city": "Susanville", "state": "CA", "zip_code": "96127", "phone": "(530) 251-5100", "facility_url": "https://www.cdcr.ca.gov/facility-locator/hdsp/", "jurisdiction": "California", "agency": "CDCR", "latitude": 40.4052702, "longitude": -120.5260649 }, "geometry": { "type": "Point", "coordinates": [ -120.5260649, 40.4052702 ] } },
{ "type": "Feature", "properties": { "name": "Ironwood\nState Prison", "acronym": "ISP", "street_address": "19005\nWiley’s Well Road", "city": "Blythe", "state": "CA", "zip_code": "92225", "phone": "(760) 921-3000", "facility_url": "https://www.cdcr.ca.gov/facility-locator/isp/", "jurisdiction": "California", "agency": "CDCR", "latitude": 33.6094948, "longitude": -114.9019957 }, "geometry": { "type": "Point", "coordinates": [ -114.9019957, 33.6094948 ] } },
{ "type": "Feature", "properties": { "name": "Kern\nValley State Prison", "acronym": "KVSP", "street_address": "3000\nWest Cecil Avenue", "city": "Delano", "state": "CA", "zip_code": "93216-6000", "phone": "(661) 721-6300", "facility_url": "https://www.cdcr.ca.gov/facility-locator/kvsp/", "jurisdiction": "California", "agency": "CDCR", "latitude": 35.7660405, "longitude": -119.3209321 }, "geometry": { "type": "Point", "coordinates": [ -119.3209321, 35.7660405 ] } },
{ "type": "Feature", "properties": { "name": "Mule\nCreek State Prison", "acronym": "MCSP", "street_address": "4001\nHighway 104", "city": "Ione", "state": "CA", "zip_code": "95640", "phone": "(209) 274-4911", "facility_url": "https://www.cdcr.ca.gov/facility-locator/mcsp/", "jurisdiction": "California", "agency": "CDCR", "latitude": 38.3696272, "longitude": -120.9546466 }, "geometry": { "type": "Point", "coordinates": [ -120.9546466, 38.3696272 ] } },
{ "type": "Feature", "properties": { "name": "North\nKern State Prison", "acronym": "NKSP", "street_address": "2737\nWest Cecil Avenue", "city": "Delano", "state": "CA", "zip_code": "93215", "phone": "(661) 721-2345 (General)", "facility_url": "https://www.cdcr.ca.gov/facility-locator/nksp/", "jurisdiction": "California", "agency": "CDCR", "latitude": 35.7796918, "longitude": -119.309062 }, "geometry": { "type": "Point", "coordinates": [ -119.309062, 35.7796918 ] } },
{ "type": "Feature", "properties": { "name": "Pelican\nBay State Prison", "acronym": "PBSP", "street_address": "5905\nLake Earl Drive", "city": "Crescent City", "state": "CA", "zip_code": "95531", "phone": "(707) 465-1000", "facility_url": "https://www.cdcr.ca.gov/facility-locator/pbsp/", "jurisdiction": "California", "agency": "CDCR", "latitude": 41.8539487, "longitude": -124.1540669 }, "geometry": { "type": "Point", "coordinates": [ -124.1540669, 41.8539487 ] } },
{ "type": "Feature", "properties": { "name": "Pleasant\nValley State Prison", "acronym": "PVSP", "street_address": "24863\nWest Jayne Avenue", "city": "Coalinga", "state": "CA", "zip_code": "93210", "phone": "(559) 935-4900", "facility_url": "https://www.cdcr.ca.gov/facility-locator/pvsp/", "jurisdiction": "California", "agency": "CDCR", "latitude": 36.1297323, "longitude": -120.2495698 }, "geometry": { "type": "Point", "coordinates": [ -120.2495698, 36.1297323 ] } },
{ "type": "Feature", "properties": { "name": "Richard\nJ. Donovan Correctional Facility", "acronym": "RJD", "street_address": "480\nAlta Road\nSan\nDiego, CA 92179\n(619)\n661-6500", "city": null, "state": "CA", "zip_code": null, "phone": null, "facility_url": "https://www.cdcr.ca.gov/facility-locator/rjd/", "jurisdiction": "California", "agency": "CDCR", "latitude": 32.5847635, "longitude": -116.9337232 }, "geometry": { "type": "Point", "coordinates": [ -116.9337232, 32.5847635 ] } },
{ "type": "Feature", "properties": { "name": "Salinas\nValley State Prison", "acronym": "SVSP", "street_address": "31625\nHighway 101", "city": "Soledad", "state": "CA", "zip_code": "93960", "phone": "(831) 678-5500", "facility_url": "https://www.cdcr.ca.gov/facility-locator/svsp/", "jurisdiction": "California", "agency": "CDCR", "latitude": 36.4674399, "longitude": -121.3853788 }, "geometry": { "type": "Point", "coordinates": [ -121.3853788, 36.4674399 ] } },
{ "type": "Feature", "properties": { "name": "San Quentin Rehabilitation Center", "acronym": "SQ", "street_address": "San", "city": "Quentin", "state": "CA", "zip_code": "94964", "phone": "(415) 454-1460", "facility_url": "https://www.cdcr.ca.gov/facility-locator/sq/", "jurisdiction": "California", "agency": "CDCR", "latitude": 37.94018, "longitude": -122.4877642 }, "geometry": { "type": "Point", "coordinates": [ -122.4877642, 37.94018 ] } },
{ "type": "Feature", "properties": { "name": "Sierra\nConservation Center", "acronym": "SCC", "street_address": "5100\nO’Byrnes Ferry Road", "city": "Jamestown", "state": "CA", "zip_code": "95327", "phone": "(209) 984-5291", "facility_url": "https://www.cdcr.ca.gov/facility-locator/scc/", "jurisdiction": "California", "agency": "CDCR", "latitude": 37.8888432, "longitude": -120.5360727 }, "geometry": { "type": "Point", "coordinates": [ -120.5360727, 37.8888432 ] } },
{ "type": "Feature", "properties": { "name": "Substance Abuse Treatment Facility and State Prison, Corcoran", "acronym": "SATF-CSP, Corcoran", "street_address": "900 Quebec Avenue", "city": "Corcoran", "state": "CA", "zip_code": "93212", "phone": "(559) 992-7100", "facility_url": "https://www.cdcr.ca.gov/facility-locator/satf/", "jurisdiction": "California", "agency": "CDCR", "latitude": 36.0537893, "longitude": -119.5542583 }, "geometry": { "type": "Point", "coordinates": [ -119.5542583, 36.0537893 ] } },
{ "type": "Feature", "properties": { "name": "Valley\nState Prison", "acronym": "VSP", "street_address": "21633\nAvenue 24", "city": "Chowchilla", "state": "CA", "zip_code": "93610", "phone": "(559) 665-6100", "facility_url": "https://www.cdcr.ca.gov/facility-locator/vsp/", "jurisdiction": "California", "agency": "CDCR", "latitude": 37.1041406, "longitude": -120.1546002 }, "geometry": { "type": "Point", "coordinates": [ -120.1546002, 37.1041406 ] } },
{ "type": "Feature", "properties": { "name": "Wasco State Prison", "acronym": "WSP", "street_address": "701\nScofield Avenue", "city": "Wasco", "state": "CA", "zip_code": "93280", "phone": "(661) 758-8400", "facility_url": "https://www.cdcr.ca.gov/facility-locator/wsp/", "jurisdiction": "California", "agency": "CDCR", "latitude": 35.5938913, "longitude": -119.4073437 }, "geometry": { "type": "Point", "coordinates": [ -119.4073437, 35.5938913 ] } }
]
}
