{
"type": "FeatureCollection",
"name": "new_york_prisons",
"crs": { "type": "name", "properties": { "name": "urn:ogc:def:crs:OGC:1.3:CRS84" } },
"features": [
{ "type": "Feature", "properties": { "facility_url": "https://doccs.ny.gov/location/adirondack-correctional-facility", "jurisdiction": "New York", "agency": "DOCCS", "name": "Adirondack Correctional Facility", "counties_served": "Essex", "address_line1": "196 Ray Brook Road", "address_line2": "P.O. Box 110", "city": "Ray Brook", "state": "NY", "zip_code": "12977-0110", "country": "United States", "phone": "(518) 891-1343", "superintendent": "Andrew Boyd", "description": "Adirondack Correctional Facility is a medium security level facility for males.", "security_level": "Medium", "gender": "Male", "latitude": 44.295879, "longitude": -74.0931835 }, "geometry": { "type": "Point", "coordinates": [ -74.0931835, 44.295879 ] } },
{ "type": "Feature", "properties": { "facility_url": "https://doccs.ny.gov/location/albion-correctional-facility", "jurisdiction": "New York", "agency": "DOCCS", "name": "Albion Correctional Facility", "counties_served": "Orleans", "address_line1": "3595 State School Road", "address_line2": null, "city": "Albion", "state": "NY", "zip_code": "14411-9399", "country": "United States", "phone": "(585) 589-5511", "superintendent": "Melinda Samuelson", "description": "Albion Correctional Facility is a medium security level facility for females.", "security_level": "Medium", "gender": "Female", "latitude": 43.2426626, "longitude": -78.2154136 }, "geometry": { "type": "Point", "coordinates": [ -78.2154136, 43.2426626 ] } },
{ "type": "Feature", "properties": { "facility_url": "https://doccs.ny.gov/location/altona-correctional-facility", "jurisdiction": "New York", "agency": "DOCCS", "name": "Altona Correctional Facility", "counties_served": "Clinton", "address_line1": "555 Devils Den Road", "address_line2": "P.O. Box 3000", "city": "Altona", "state": "NY", "zip_code": "12910-3000", "country": "United States", "phone": "(518) 236-7841", "superintendent": "Stanley Barton", "description": "Altona Correctional Facility is a medium security level facility for males.", "security_level": "Medium", "gender": "Male", "latitude": 44.8916226, "longitude": -73.6595445 }, "geometry": { "type": "Point", "coordinates": [ -73.6595445, 44.8916226 ] } },
{ "type": "Feature", "properties": { "facility_url": "https://doccs.ny.gov/location/attica-correctional-facility", "jurisdiction": "New York", "agency": "DOCCS", "name": "Attica Correctional Facility", "counties_served": "Wyoming", "address_line1": "639 Exchange St", "address_line2": null, "city": "Attica", "state": "NY", "zip_code": "14011-0149", "country": "United States", "phone": "(585) 591-2000", "superintendent": "Julie Wolcott", "description": "Attica Correctional Facility is a maximum security level facility for males.", "security_level": "Maximum", "gender": "Male", "latitude": 42.8493767, "longitude": -78.2757215 }, "geometry": { "type": "Point", "coordinates": [ -78.2757215, 42.8493767 ] } },
{ "type": "Feature", "properties": { "facility_url": "https://doccs.ny.gov/location/auburn-correctional-facility", "jurisdiction": "New York", "agency": "DOCCS", "name": "Auburn Correctional Facility", "counties_served": "Cayuga", "address_line1": "135 State Street", "address_line2": "Incarcerated Individual Mail: P. O. Box 618, Zip 13021", "city": "Auburn", "state": "NY", "zip_code": "13024-9000", "country": "United States", "phone": "(315) 253-8401", "superintendent": "Thomas Napoli", "description": "Auburn Correctional Facility is a maximum security level facility for males.", "security_level": "Maximum", "gender": "Male", "latitude": 42.935624, "longitude": -76.5711648 }, "geometry": { "type": "Point", "coordinates": [ -76.5711648, 42.935624 ] } },
{ "type": "Feature", "properties": { "facility_url": "https://doccs.ny.gov/location/bare-hill-correctional-facility", "jurisdiction": "New York", "agency": "DOCCS", "name": "Bare Hill Correctional Facility", "counties_served": "Franklin", "address_line1": "181 Brand Rd", "address_line2": "Caller Box #20", "city": "Malone", "state": "NY", "zip_code": "12953-0020", "country": "United States", "phone": "(518) 483-8411", "superintendent": "Tanya Demers (Acting)", "description": "Bare Hill Correctional Facility is a medium security level facility for males.", "security_level": "Medium", "gender": "Male", "latitude": 44.8764725, "longitude": -74.3238158 }, "geometry": { "type": "Point", "coordinates": [ -74.3238158, 44.8764725 ] } },
{ "type": "Feature", "properties": { "facility_url": "https://doccs.ny.gov/location/bedford-hills-correctional-facility", "jurisdiction": "New York", "agency": "DOCCS", "name": "Bedford Hills Correctional Facility", "counties_served": "Westchester", "address_line1": "247 Harris Road", "address_line2": null, "city": "Bedford Hills", "state": "NY", "zip_code": "10507-2400", "country": "United States", "phone": "(914) 241-3100", "superintendent": "Eileen Russell", "description": "Bedford Hills Correctional Facility is a maximum security level facility for females.", "security_level": "Maximum", "gender": "Female", "latitude": 41.238826, "longitude": -73.6804203 }, "geometry": { "type": "Point", "coordinates": [ -73.6804203, 41.238826 ] } },
{ "type": "Feature", "properties": { "facility_url": "https://doccs.ny.gov/location/cape-vincent-correctional-facility", "jurisdiction": "New York", "agency": "DOCCS", "name": "Cape Vincent Correctional Facility", "counties_served": "Jefferson", "address_line1": "36560 State Route 12E", "address_line2": "P.O. Box 599", "city": "Cape Vincent", "state": "NY", "zip_code": "13618-0599", "country": "United States", "phone": "(315) 654-4100", "superintendent": "Marcia Cleveland", "description": "Cape Vincent Correctional Facility is a medium security level facility for males.", "security_level": "Medium", "gender": "Male", "latitude": 44.198011, "longitude": -76.1880707 }, "geometry": { "type": "Point", "coordinates": [ -76.1880707, 44.198011 ] } },
{ "type": "Feature", "properties": { "facility_url": "https://doccs.ny.gov/location/cayuga-correctional-facility", "jurisdiction": "New York", "agency": "DOCCS", "name": "Cayuga Correctional Facility", "counties_served": "Cayuga", "address_line1": "2202 State Route 38A", "address_line2": "P.O. Box 1150 (Incarcerated Individual Mail: P.O. Box 1186, Zip 13118 )", "city": "Moravia", "state": "NY", "zip_code": "13118-1150", "country": "United States", "phone": "(315) 497-1110", "superintendent": "Thomas Gee", "description": "Cayuga Correctional Facility is a medium security level facility for males.", "security_level": "Medium", "gender": "Male", "latitude": 42.7217857, "longitude": -76.396307 }, "geometry": { "type": "Point", "coordinates": [ -76.396307, 42.7217857 ] } },
{ "type": "Feature", "properties": { "facility_url": "https://doccs.ny.gov/location/clinton-correctional-facility", "jurisdiction": "New York", "agency": "DOCCS", "name": "Clinton Correctional Facility", "counties_served": "Clinton", "address_line1": "1156 Rt. 374", "address_line2": "P.O. Box 2000 (Incarcerated Individual Mail: P.O. Box 2001, Zip 12929)", "city": "Dannemora", "state": "NY", "zip_code": "12929-2000", "country": "United States", "phone": "(518) 492-2511", "superintendent": "Mariejosee King", "description": "Clinton Correctional Facility is a maximum security level facility for males.", "security_level": "Maximum", "gender": "Male", "latitude": 44.7220909, "longitude": -73.7236881 }, "geometry": { "type": "Point", "coordinates": [ -73.7236881, 44.7220909 ] } },
{ "type": "Feature", "properties": { "facility_url": "https://doccs.ny.gov/location/collins-correctional-facility", "jurisdiction": "New York", "agency": "DOCCS", "name": "Collins Correctional Facility", "counties_served": "Erie", "address_line1": "Middle Road", "address_line2": "P.O. Box 490 (Incarcerated Individual Mail: P.O. Box 340, Zip 14034-0340)", "city": "Collins", "state": "NY", "zip_code": "14034-0490", "country": "United States", "phone": "(716) 532-4588", "superintendent": "Leanne Latona", "description": "Collins Correctional Facility is a medium security level facility for males.", "security_level": "Medium", "gender": "Male", "latitude": 42.4907738, "longitude": -78.9287823 }, "geometry": { "type": "Point", "coordinates": [ -78.9287823, 42.4907738 ] } },
{ "type": "Feature", "properties": { "facility_url": "https://doccs.ny.gov/location/coxsackie-correctional-facility", "jurisdiction": "New York", "agency": "DOCCS", "name": "Coxsackie Correctional Facility", "counties_served": "Greene", "address_line1": "11260 Route 9W", "address_line2": "P.O. Box 200 (Incarcerated Individual Mail: P.O. Box 999, Zip 12051-0999)", "city": "Coxsackie", "state": "NY", "zip_code": "12051-0200", "country": "United States", "phone": "(518) 731-2781", "superintendent": "Brooke Blaise", "description": "Coxsackie Correctional Facility is a maximum security level facility for males.", "security_level": "Maximum", "gender": "Male", "latitude": 42.343663, "longitude": -73.8453343 }, "geometry": { "type": "Point", "coordinates": [ -73.8453343, 42.343663 ] } },
{ "type": "Feature", "properties": { "facility_url": "https://doccs.ny.gov/location/eastern-ny-correctional-facility", "jurisdiction": "New York", "agency": "DOCCS", "name": "Eastern NY Correctional Facility", "counties_served": "Ulster", "address_line1": "30 Institution Rd", "address_line2": "P.O. Box 338", "city": "Napanoch", "state": "NY", "zip_code": "12458-0338", "country": "United States", "phone": "(845) 647-7400", "superintendent": "Michael J. Ritter", "description": "Eastern NY Correctional Facility is a maximum security level facility for males.", "security_level": "Maximum", "gender": "Male", "latitude": 41.738257, "longitude": -74.360002 }, "geometry": { "type": "Point", "coordinates": [ -74.360002, 41.738257 ] } },
{ "type": "Feature", "properties": { "facility_url": "https://doccs.ny.gov/location/edgecombe-residential-treatment-facility", "jurisdiction": "New York", "agency": "DOCCS", "name": "Edgecombe Residential Treatment Facility", "counties_served": "New York", "address_line1": "611 Edgecombe Avenue", "address_line2": null, "city": "New York", "state": "NY", "zip_code": "10032-4398", "country": "United States", "phone": "(212) 923-2575", "superintendent": "Seiveright Miller", "description": "Edgecombe Residential Treatment Facility is a minimum security level facility for males and females.", "security_level": "Minimum", "gender": "Male", "latitude": 40.8362309, "longitude": -73.9376813 }, "geometry": { "type": "Point", "coordinates": [ -73.9376813, 40.8362309 ] } },
{ "type": "Feature", "properties": { "facility_url": "https://doccs.ny.gov/location/elmira-correctional-facility", "jurisdiction": "New York", "agency": "DOCCS", "name": "Elmira Correctional Facility", "counties_served": "Chemung", "address_line1": "1879 Davis St", "address_line2": "P.O. Box 500", "city": "Elmira", "state": "NY", "zip_code": "14901-0500", "country": "United States", "phone": "(607) 734-3901", "superintendent": "Kevin McCarthy", "description": "Elmira Correctional Facility is a maximum security level facility for males.", "security_level": "Maximum", "gender": "Male", "latitude": 42.1152031, "longitude": -76.8297493 }, "geometry": { "type": "Point", "coordinates": [ -76.829749300000017, 42.1152031 ] } },
{ "type": "Feature", "properties": { "facility_url": "https://doccs.ny.gov/location/fishkill-correctional-facility", "jurisdiction": "New York", "agency": "DOCCS", "name": "Fishkill Correctional Facility", "counties_served": "Dutchess", "address_line1": "18 Strack Drive", "address_line2": "(Incarcerated Individual Mail: 271 Matteawan Road, P.O. Box 1245)", "city": "Beacon", "state": "NY", "zip_code": "12508-0307", "country": "United States", "phone": "(845) 831-4800", "superintendent": "Michael Daye", "description": "Fishkill Correctional Facility is a medium security level facility for males.", "security_level": "Medium", "gender": "Male", "latitude": 41.5220144, "longitude": -73.9508822 }, "geometry": { "type": "Point", "coordinates": [ -73.9508822, 41.5220144 ] } },
{ "type": "Feature", "properties": { "facility_url": "https://doccs.ny.gov/location/five-points-correctional-facility", "jurisdiction": "New York", "agency": "DOCCS", "name": "Five Points Correctional Facility", "counties_served": "Seneca", "address_line1": "6600 State Route 96", "address_line2": "Caller Box 400 (Incarcerated Individual Mail: Caller Box 119)", "city": "Romulus", "state": "NY", "zip_code": "14541", "country": "United States", "phone": "(607) 869-5111", "superintendent": "Reginald Bishop", "description": "Five Points Correctional Facility is a maximum security level facility for males.", "security_level": "Maximum", "gender": "Male", "latitude": 42.7350308, "longitude": -76.860565 }, "geometry": { "type": "Point", "coordinates": [ -76.860565, 42.7350308 ] } },
{ "type": "Feature", "properties": { "facility_url": "https://doccs.ny.gov/location/franklin-correctional-facility", "jurisdiction": "New York", "agency": "DOCCS", "name": "Franklin Correctional Facility", "counties_served": "Franklin", "address_line1": "62 Bare Hill Road", "address_line2": "P.O. Box 10", "city": "Malone", "state": "NY", "zip_code": "12953-0010", "country": "United States", "phone": "(518) 483-6040", "superintendent": "Sandra Danforth", "description": "Franklin Correctional Facility is a medium security level facility for males.", "security_level": "Medium", "gender": "Male", "latitude": 44.869542, "longitude": -74.3157677 }, "geometry": { "type": "Point", "coordinates": [ -74.3157677, 44.869542 ] } },
{ "type": "Feature", "properties": { "facility_url": "https://doccs.ny.gov/location/gouverneur-correctional-facility", "jurisdiction": "New York", "agency": "DOCCS", "name": "Gouverneur Correctional Facility", "counties_served": "St. Lawrence", "address_line1": "112 Scotch Settlement Road", "address_line2": "P.O. Box 370", "city": "Gouverneur", "state": "NY", "zip_code": "13642-0370", "country": "United States", "phone": "(315) 287-7351", "superintendent": "Mark Rockwood", "description": "Gouverneur Correctional Facility is a medium security level facility for males.", "security_level": "Medium", "gender": "Male", "latitude": 44.3401974, "longitude": -75.4420986 }, "geometry": { "type": "Point", "coordinates": [ -75.4420986, 44.3401974 ] } },
{ "type": "Feature", "properties": { "facility_url": "https://doccs.ny.gov/location/green-haven-correctional-facility", "jurisdiction": "New York", "agency": "DOCCS", "name": "Green Haven Correctional Facility", "counties_served": "Dutchess", "address_line1": "594 Rt. 216", "address_line2": null, "city": "Stormville", "state": "NY", "zip_code": "12582-0010", "country": "United States", "phone": "(845) 221-2711", "superintendent": "Mark Miller", "description": "Green Haven Correctional Facility is a maximum security level facility for males.", "security_level": "Maximum", "gender": "Male", "latitude": 41.5809365, "longitude": -73.7168927 }, "geometry": { "type": "Point", "coordinates": [ -73.7168927, 41.5809365 ] } },
{ "type": "Feature", "properties": { "facility_url": "https://doccs.ny.gov/location/greene-correctional-facility", "jurisdiction": "New York", "agency": "DOCCS", "name": "Greene Correctional Facility", "counties_served": "Greene", "address_line1": "165 Plank Road", "address_line2": "P.O. Box 8 (Incarcerated Individual Mail: P.O. Box 975, Zip 12051-0975)", "city": "Coxsackie", "state": "NY", "zip_code": "12051-0008", "country": "United States", "phone": "(518) 731-2741", "superintendent": "Aaron Torres", "description": "Greene Correctional Facility is a medium security level facility for males.", "security_level": "Medium", "gender": "Male", "latitude": 42.3494394, "longitude": -73.8251926 }, "geometry": { "type": "Point", "coordinates": [ -73.8251926, 42.3494394 ] } },
{ "type": "Feature", "properties": { "facility_url": "https://doccs.ny.gov/location/groveland-correctional-facility", "jurisdiction": "New York", "agency": "DOCCS", "name": "Groveland Correctional Facility", "counties_served": "Livingston", "address_line1": "7000 Sonyea Road", "address_line2": "P.O. Box 50", "city": "Sonyea", "state": "NY", "zip_code": "14556-0050", "country": "United States", "phone": "(585) 658-2871", "superintendent": "Amy Cook", "description": "Groveland Correctional Facility is a medium security level facility for males.", "security_level": "Medium", "gender": "Male", "latitude": 42.6832932, "longitude": -77.8338077 }, "geometry": { "type": "Point", "coordinates": [ -77.8338077, 42.6832932 ] } },
{ "type": "Feature", "properties": { "facility_url": "https://doccs.ny.gov/location/hale-creek-asactc", "jurisdiction": "New York", "agency": "DOCCS", "name": "Hale Creek ASACTC", "counties_served": "Fulton", "address_line1": "279 Maloney Road", "address_line2": "(Incarcerated Individual Mail: P.O. Box 950)", "city": "Johnstown", "state": "NY", "zip_code": "12095-3769", "country": "United States", "phone": "(518) 736-2094", "superintendent": "Rachel Young", "description": "Hale Creek ASACTC is a medium security level facility for males.", "security_level": "Medium", "gender": "Male", "latitude": 43.0134838, "longitude": -74.2993544 }, "geometry": { "type": "Point", "coordinates": [ -74.2993544, 43.0134838 ] } },
{ "type": "Feature", "properties": { "facility_url": "https://doccs.ny.gov/location/hudson-correctional-facility", "jurisdiction": "New York", "agency": "DOCCS", "name": "Hudson Correctional Facility", "counties_served": "Columbia", "address_line1": "50 East Court Street", "address_line2": "P.O. Box 576", "city": "Hudson", "state": "NY", "zip_code": "12534-0576", "country": "United States", "phone": "(518) 828-4311", "superintendent": "Stephen Brandow", "description": "Hudson Correctional Facility is a medium security level facility for males.", "security_level": "Medium", "gender": "Male", "latitude": 42.2499297, "longitude": -73.7904287 }, "geometry": { "type": "Point", "coordinates": [ -73.7904287, 42.2499297 ] } },
{ "type": "Feature", "properties": { "facility_url": "https://doccs.ny.gov/location/lakeview-shock-incarceration-correctional-facility", "jurisdiction": "New York", "agency": "DOCCS", "name": "Lakeview Shock Incarceration Correctional Facility", "counties_served": "Chautauqua", "address_line1": "9300 Lake Avenue", "address_line2": "P.O. Box T", "city": "Brocton", "state": "NY", "zip_code": "14716-9798", "country": "United States", "phone": "(716) 792-7100", "superintendent": "Andrea Schneider", "description": "Lakeview Shock Incarceration Correctional Facility is a medium security level facility for males and females.", "security_level": "Medium", "gender": "Male", "latitude": 42.4092885, "longitude": -79.4362719 }, "geometry": { "type": "Point", "coordinates": [ -79.4362719, 42.4092885 ] } },
{ "type": "Feature", "properties": { "facility_url": "https://doccs.ny.gov/location/marcy-correctional-facility", "jurisdiction": "New York", "agency": "DOCCS", "name": "Marcy Correctional Facility", "counties_served": "Oneida", "address_line1": "9000 Old River Road", "address_line2": "P.O. Box 5000 (Incarcerated Individual Mail: P.O. Box 3600)", "city": "Marcy", "state": "NY", "zip_code": "13403-5000", "country": "United States", "phone": "(315) 768-1400", "superintendent": "Bennie Thorpe", "description": "Marcy Correctional Facility is a medium security level facility for males.", "security_level": "Medium", "gender": "Male", "latitude": 43.1602096, "longitude": -75.3076904 }, "geometry": { "type": "Point", "coordinates": [ -75.3076904, 43.160209599999988 ] } },
{ "type": "Feature", "properties": { "facility_url": "https://doccs.ny.gov/location/mid-state-correctional-facility", "jurisdiction": "New York", "agency": "DOCCS", "name": "Mid-State Correctional Facility", "counties_served": "Oneida", "address_line1": "9005 Old River Road, P. O. Box 216", "address_line2": "Incarcerated Individual Mail: P. O. Box 2500", "city": "Marcy", "state": "NY", "zip_code": "13403-0216", "country": "United States", "phone": "(315) 768-8581", "superintendent": "Thomas Delmar", "description": "Mid-State Correctional Facility is a medium security level facility for males.", "security_level": "Medium", "gender": "Male", "latitude": 43.1685528, "longitude": -75.298943 }, "geometry": { "type": "Point", "coordinates": [ -75.298943, 43.1685528 ] } },
{ "type": "Feature", "properties": { "facility_url": "https://doccs.ny.gov/location/mohawk-correctional-facility", "jurisdiction": "New York", "agency": "DOCCS", "name": "Mohawk Correctional Facility", "counties_served": "Oneida", "address_line1": "6514 Rt. 26", "address_line2": "P.O. Box 8450 (Incarcerated Individual Mail: P.O. Box 8451)", "city": "Rome", "state": "NY", "zip_code": "13442", "country": "United States", "phone": "(315) 339-5232", "superintendent": "Anthony Lowe (Acting)", "description": "Mohawk Correctional Facility is a medium security level facility for males.", "security_level": "Medium", "gender": "Male", "latitude": 43.1787454, "longitude": -75.4822439 }, "geometry": { "type": "Point", "coordinates": [ -75.4822439, 43.1787454 ] } },
{ "type": "Feature", "properties": { "facility_url": "https://doccs.ny.gov/location/orleans-correctional-facility", "jurisdiction": "New York", "agency": "DOCCS", "name": "Orleans Correctional Facility", "counties_served": "Orleans", "address_line1": "3531 Gaines Basin Road", "address_line2": null, "city": "Albion", "state": "NY", "zip_code": "14411-9199", "country": "United States", "phone": "(585) 589-6820", "superintendent": "Kishon Walker", "description": "Orleans Correctional Facility is a medium security level facility for males.", "security_level": "Medium", "gender": "Male", "latitude": 43.2440594, "longitude": -78.2224765 }, "geometry": { "type": "Point", "coordinates": [ -78.2224765, 43.2440594 ] } },
{ "type": "Feature", "properties": { "facility_url": "https://doccs.ny.gov/location/otisville-correctional-facility", "jurisdiction": "New York", "agency": "DOCCS", "name": "Otisville Correctional Facility", "counties_served": "Orange", "address_line1": "57 Sanitorium Road", "address_line2": null, "city": "Otisville", "state": "NY", "zip_code": "10963-0008", "country": "United States", "phone": "(845) 386-1490", "superintendent": "Delta Barometre", "description": "Otisville Correctional Facility is a medium security level facility for males.", "security_level": "Medium", "gender": "Male", "latitude": 41.4791354, "longitude": -74.5294315 }, "geometry": { "type": "Point", "coordinates": [ -74.5294315, 41.4791354 ] } },
{ "type": "Feature", "properties": { "facility_url": "https://doccs.ny.gov/location/queensboro-correctional-facility", "jurisdiction": "New York", "agency": "DOCCS", "name": "Queensboro Correctional Facility", "counties_served": "Queens", "address_line1": "47-04 Van Dam Street", "address_line2": null, "city": "Long Island City", "state": "NY", "zip_code": "11101-3081", "country": "United States", "phone": "(718) 361-8920", "superintendent": "Linda Carrington-Allen", "description": "Queensboro Correctional Facility is a minimum security level facility for males.", "security_level": "Minimum", "gender": "Male", "latitude": 40.7427096, "longitude": -73.9344207 }, "geometry": { "type": "Point", "coordinates": [ -73.9344207, 40.7427096 ] } },
{ "type": "Feature", "properties": { "facility_url": "https://doccs.ny.gov/location/riverview-correctional-facility", "jurisdiction": "New York", "agency": "DOCCS", "name": "Riverview Correctional Facility", "counties_served": "St. Lawrence", "address_line1": "1110 Tibbits Drive", "address_line2": "P.O. Box 158", "city": "Ogdensburg", "state": "NY", "zip_code": "13669-0158", "country": "United States", "phone": "(315) 393-8400", "superintendent": "Robert Brabant (Acting)", "description": "Riverview Correctional Facility is a medium security level facility for males.", "security_level": "Medium", "gender": "Male", "latitude": 44.7183035, "longitude": -75.4378934 }, "geometry": { "type": "Point", "coordinates": [ -75.4378934, 44.7183035 ] } },
{ "type": "Feature", "properties": { "facility_url": "https://doccs.ny.gov/location/shawangunk-correctional-facility", "jurisdiction": "New York", "agency": "DOCCS", "name": "Shawangunk Correctional Facility", "counties_served": "Ulster", "address_line1": "200 Quick Road. P. O. Box 750", "address_line2": "Incarcerated Individual Mail: P. O. Box 700", "city": "Wallkill", "state": "NY", "zip_code": "12589-0750", "country": "United States", "phone": "(845) 895-2081", "superintendent": "John Wood", "description": "Shawangunk Correctional Facility is a maximum security level facility for males.", "security_level": "Maximum", "gender": "Male", "latitude": 41.6357635, "longitude": -74.16348 }, "geometry": { "type": "Point", "coordinates": [ -74.16348, 41.6357635 ] } },
{ "type": "Feature", "properties": { "facility_url": "https://doccs.ny.gov/location/sing-sing-correctional-facility", "jurisdiction": "New York", "agency": "DOCCS", "name": "Sing Sing Correctional Facility", "counties_served": "Westchester", "address_line1": "354 Hunter Street", "address_line2": null, "city": "Ossining", "state": "NY", "zip_code": "10562-5442", "country": "United States", "phone": "(914) 941-0108", "superintendent": "Marlyn Kopp", "description": "Sing Sing Correctional Facility is a maximum security level facility for males.", "security_level": "Maximum", "gender": "Male", "latitude": 41.1514812, "longitude": -73.8676347 }, "geometry": { "type": "Point", "coordinates": [ -73.867634700000011, 41.1514812 ] } },
{ "type": "Feature", "properties": { "facility_url": "https://doccs.ny.gov/location/taconic-correctional-facility", "jurisdiction": "New York", "agency": "DOCCS", "name": "Taconic Correctional Facility", "counties_served": "Westchester", "address_line1": "250 Harris Road", "address_line2": null, "city": "Bedford Hills", "state": "NY", "zip_code": "10507-2497", "country": "United States", "phone": "(914) 241-3010", "superintendent": "Emily Williams", "description": "Taconic Correctional Facility is a medium security level facility for females.", "security_level": "Medium", "gender": "Female", "latitude": 41.2447918, "longitude": -73.6782578 }, "geometry": { "type": "Point", "coordinates": [ -73.6782578, 41.2447918 ] } },
{ "type": "Feature", "properties": { "facility_url": "https://doccs.ny.gov/location/ulster-correctional-facility", "jurisdiction": "New York", "agency": "DOCCS", "name": "Ulster Correctional Facility", "counties_served": "Ulster", "address_line1": "750 Berme Road", "address_line2": "P.O. Box 800", "city": "Napanoch", "state": "NY", "zip_code": "12458-0800", "country": "United States", "phone": "(845) 647-1670", "superintendent": "Stacie Bennett", "description": "Ulster Correctional Facility is a medium security level facility for males.", "security_level": "Medium", "gender": "Male", "latitude": 41.7429137, "longitude": -74.3565479 }, "geometry": { "type": "Point", "coordinates": [ -74.3565479, 41.7429137 ] } },
{ "type": "Feature", "properties": { "facility_url": "https://doccs.ny.gov/location/upstate-correctional-facility", "jurisdiction": "New York", "agency": "DOCCS", "name": "Upstate Correctional Facility", "counties_served": "Franklin", "address_line1": "309 Bare Hill Road", "address_line2": "P.O. Box 2000", "city": "Malone", "state": "NY", "zip_code": "12953", "country": "United States", "phone": "(518) 483-6997", "superintendent": "Donald Uhler", "description": "Upstate Correctional Facility is a maximum security level facility for males.", "security_level": "Maximum", "gender": "Male", "latitude": 44.8884763, "longitude": -74.3207256 }, "geometry": { "type": "Point", "coordinates": [ -74.3207256, 44.8884763 ] } },
{ "type": "Feature", "properties": { "facility_url": "https://doccs.ny.gov/location/wallkill-correctional-facility", "jurisdiction": "New York", "agency": "DOCCS", "name": "Wallkill Correctional Facility", "counties_served": "Ulster", "address_line1": "50 McKendrick Road", "address_line2": "P.O. Box G", "city": "Wallkill", "state": "NY", "zip_code": "12589-0286", "country": "United States", "phone": "(845) 895-2021", "superintendent": "Phil Melecio", "description": "Wallkill Correctional Facility is a medium security level facility for males.", "security_level": "Medium", "gender": "Male", "latitude": 41.6056492, "longitude": -74.1840358 }, "geometry": { "type": "Point", "coordinates": [ -74.1840358, 41.605649199999988 ] } },
{ "type": "Feature", "properties": { "facility_url": "https://doccs.ny.gov/location/washington-correctional-facility", "jurisdiction": "New York", "agency": "DOCCS", "name": "Washington Correctional Facility", "counties_served": "Washington", "address_line1": "72 Lock Eleven Lane", "address_line2": "P.O. Box 180", "city": "Comstock", "state": "NY", "zip_code": "12821-0180", "country": "United States", "phone": "(518) 639-4486", "superintendent": "Christopher Collins", "description": "Washington Correctional Facility is a medium security level facility for males.", "security_level": "Medium", "gender": "Male", "latitude": 43.4690854, "longitude": -73.4290707 }, "geometry": { "type": "Point", "coordinates": [ -73.4290707, 43.4690854 ] } },
{ "type": "Feature", "properties": { "facility_url": "https://doccs.ny.gov/location/wende-correctional-facility", "jurisdiction": "New York", "agency": "DOCCS", "name": "Wende Correctional Facility", "counties_served": "Erie", "address_line1": "3040 Wende Road", "address_line2": null, "city": "Alden", "state": "NY", "zip_code": "14004-1187", "country": "United States", "phone": "(716) 937-4000", "superintendent": "Christopher Yehl", "description": "Wende Correctional Facility is a maximum security level facility for males.", "security_level": "Maximum", "gender": "Male", "latitude": 42.9316367, "longitude": -78.5423617 }, "geometry": { "type": "Point", "coordinates": [ -78.5423617, 42.9316367 ] } },
{ "type": "Feature", "properties": { "facility_url": "https://doccs.ny.gov/location/woodbourne-correctional-facility", "jurisdiction": "New York", "agency": "DOCCS", "name": "Woodbourne Correctional Facility", "counties_served": "Sullivan", "address_line1": "99 Prison Road", "address_line2": "P.O. Box 1000", "city": "Woodbourne", "state": "NY", "zip_code": "12788-1000", "country": "United States", "phone": "(845) 434-7730", "superintendent": "Betsy Smith", "description": "Woodbourne Correctional Facility is a medium security level facility for males.", "security_level": "Medium", "gender": "Male", "latitude": 41.7541122, "longitude": -74.5932923 }, "geometry": { "type": "Point", "coordinates": [ -74.5932923, 41.7541122 ] } },
{ "type": "Feature", "properties": { "facility_url": "https://doccs.ny.gov/location/wyoming-correctional-facility", "jurisdiction": "New York", "agency": "DOCCS", "name": "Wyoming Correctional Facility", "counties_served": "Wyoming", "address_line1": "3203 Dunbar Road", "address_line2": "P.O. Box 501", "city": "Attica", "state": "NY", "zip_code": "14011-0501", "country": "United States", "phone": "(585) 591-1010", "superintendent": "Michael Hill", "description": "Wyoming Correctional Facility is a medium security level facility for males.", "security_level": "Medium", "gender": "Male", "latitude": 42.8488243, "longitude": -78.2651485 }, "geometry": { "type": "Point", "coordinates": [ -78.2651485, 42.8488243 ] } }
]
}
