[
  {
    "name":"Bledsoe County Correctional Complex",
    "state":"Tennessee",
    "agency":"Tennessee Department of Correction (TDOC)",
    "detail_url":"https:\/\/www.tn.gov\/content\/tn\/correction\/state-prisons\/state-prison-list\/bledsoe-count-correctional-complex.html",
    "capacity":2265.0,
    "acres":500.0,
    "facility_type":"Correctional Complex",
    "warden":null,
    "street_address":null,
    "mailing_address":null,
    "city":null,
    "zip_code":null,
    "county":null,
    "phone":null,
    "security_level":null,
    "square_feet":null,
    "staff_count":null,
    "latitude":null,
    "longitude":null
  },
  {
    "name":"Morgan County Correctional Complex",
    "state":"Tennessee",
    "agency":"Tennessee Department of Correction (TDOC)",
    "detail_url":"https:\/\/www.tn.gov\/content\/tn\/correction\/state-prisons\/state-prison-list\/morgan-county-correctional-complex.html",
    "capacity":2128.0,
    "acres":65.0,
    "facility_type":"Correctional Complex",
    "warden":"Shawn Phillips",
    "street_address":"541 Wayne Cotton Morgan Drive",
    "mailing_address":"P.O. Box 2000",
    "city":"Wartburg",
    "zip_code":"37887",
    "county":"Morgan County",
    "phone":"(423) 346-1300",
    "security_level":"Maximum",
    "square_feet":500000.0,
    "staff_count":800.0,
    "latitude":36.1101391,
    "longitude":-84.5411922
  },
  {
    "name":"Northeast Correctional Complex",
    "state":"Tennessee",
    "agency":"Tennessee Department of Correction (TDOC)",
    "detail_url":"https:\/\/www.tn.gov\/content\/tn\/correction\/state-prisons\/state-prison-list\/northeast-correctional-complex.html",
    "capacity":1395.0,
    "acres":null,
    "facility_type":"Correctional Complex",
    "warden":"Brian Eller",
    "street_address":"5249 Highway",
    "mailing_address":"P.O. Box 5000",
    "city":"Mountain City",
    "zip_code":"37683-5000",
    "county":"Johnson County",
    "phone":"(423) 727-7387",
    "security_level":null,
    "square_feet":null,
    "staff_count":null,
    "latitude":36.4745636,
    "longitude":-81.804838
  },
  {
    "name":"Debra K. Johnson Rehabilitation Center",
    "state":"Tennessee",
    "agency":"Tennessee Department of Correction (TDOC)",
    "detail_url":"https:\/\/www.tn.gov\/content\/tn\/correction\/state-prisons\/state-prison-list\/debra-k--johnson-rehabilitation-center.html",
    "capacity":null,
    "acres":null,
    "facility_type":"Rehabilitation Center",
    "warden":null,
    "street_address":"3881 Stewarts Lane",
    "mailing_address":null,
    "city":"Nashville",
    "zip_code":"37243-0468",
    "county":"Davidson County",
    "phone":"(615) 741-1255",
    "security_level":null,
    "square_feet":null,
    "staff_count":null,
    "latitude":36.1925122,
    "longitude":-86.8617805
  },
  {
    "name":"Lois M. DeBerry Special Needs Facility",
    "state":"Tennessee",
    "agency":"Tennessee Department of Correction (TDOC)",
    "detail_url":"https:\/\/www.tn.gov\/content\/tn\/correction\/state-prisons\/state-prison-list\/lois-m-deberry-special-needs-facility.html",
    "capacity":null,
    "acres":null,
    "facility_type":"Special Needs Facility",
    "warden":"James M. Holloway",
    "street_address":"7575 Cockrill Bend Boulevard",
    "mailing_address":null,
    "city":"Nashville",
    "zip_code":"37209-1057",
    "county":"Davidson County",
    "phone":"(615) 350-2700",
    "security_level":null,
    "square_feet":null,
    "staff_count":null,
    "latitude":36.1897532,
    "longitude":-86.898158
  },
  {
    "name":"Riverbend Maximum Security Institution",
    "state":"Tennessee",
    "agency":"Tennessee Department of Correction (TDOC)",
    "detail_url":"https:\/\/www.tn.gov\/content\/tn\/correction\/state-prisons\/state-prison-list\/riverbend-maximum-security-institution.html",
    "capacity":786.0,
    "acres":132.0,
    "facility_type":"Correctional Facility",
    "warden":"Kenneth Nelsen",
    "street_address":"7475 Cockrill Bend Boulevard",
    "mailing_address":null,
    "city":"Nashville",
    "zip_code":"37243-0471",
    "county":"Davidson County",
    "phone":"(615) 350-3100",
    "security_level":"Maximum",
    "square_feet":320000.0,
    "staff_count":null,
    "latitude":36.1861067,
    "longitude":-86.9000778
  },
  {
    "name":"Turney Center Industrial Complex",
    "state":"Tennessee",
    "agency":"Tennessee Department of Correction (TDOC)",
    "detail_url":"https:\/\/www.tn.gov\/content\/tn\/correction\/state-prisons\/state-prison-list\/turney-center-industrial-complex.html",
    "capacity":1574.0,
    "acres":null,
    "facility_type":"Industrial Complex",
    "warden":"Taurean James",
    "street_address":null,
    "mailing_address":null,
    "city":"Only",
    "zip_code":"37140-4050",
    "county":"Hickman County",
    "phone":"(931) 729-5161",
    "security_level":null,
    "square_feet":null,
    "staff_count":null,
    "latitude":null,
    "longitude":null
  },
  {
    "name":"Mark Luttrell Transition Center",
    "state":"Tennessee",
    "agency":"Tennessee Department of Correction (TDOC)",
    "detail_url":"https:\/\/www.tn.gov\/content\/tn\/correction\/state-prisons\/state-prison-list\/mark-luttrell-transition-center.html",
    "capacity":null,
    "acres":null,
    "facility_type":"Transition Center",
    "warden":"Henry Holiday",
    "street_address":"6000 State Road",
    "mailing_address":null,
    "city":"Memphis",
    "zip_code":"38134",
    "county":"Shelby County",
    "phone":"(901) 372-2080",
    "security_level":null,
    "square_feet":null,
    "staff_count":null,
    "latitude":35.1560191,
    "longitude":-89.8624942
  },
  {
    "name":"Northwest Correctional Complex",
    "state":"Tennessee",
    "agency":"Tennessee Department of Correction (TDOC)",
    "detail_url":"https:\/\/www.tn.gov\/content\/tn\/correction\/state-prisons\/state-prison-list\/northwest-correctional-complex.html",
    "capacity":null,
    "acres":null,
    "facility_type":"Correctional Complex",
    "warden":"Stanton Heidle",
    "street_address":null,
    "mailing_address":null,
    "city":"Tiptonville",
    "zip_code":"38079",
    "county":"Lake County",
    "phone":"(731) 253-5000",
    "security_level":null,
    "square_feet":null,
    "staff_count":null,
    "latitude":null,
    "longitude":null
  },
  {
    "name":"West Tennessee State Penitentiary",
    "state":"Tennessee",
    "agency":"Tennessee Department of Correction (TDOC)",
    "detail_url":"https:\/\/www.tn.gov\/content\/tn\/correction\/state-prisons\/state-prison-list\/west-tennessee-state-penitentiary.html",
    "capacity":980.0,
    "acres":null,
    "facility_type":"State Penitentiary",
    "warden":"Johnny Fitz",
    "street_address":"480 Green Chapel Road",
    "mailing_address":"P.O. Box 1150",
    "city":"Henning",
    "zip_code":"38041-1150",
    "county":"Lauderdale County",
    "phone":"(731) 738-5044",
    "security_level":"Maximum",
    "square_feet":null,
    "staff_count":null,
    "latitude":35.6701062,
    "longitude":-89.7433418
  },
  {
    "name":"Women's Therapeutic Residential Center",
    "state":"Tennessee",
    "agency":"Tennessee Department of Correction (TDOC)",
    "detail_url":"https:\/\/www.tn.gov\/content\/tn\/correction\/state-prisons\/state-prison-list\/west-tennessee-state-penitentiary\/women-s-therapeutic-residential-center.html",
    "capacity":1036.0,
    "acres":null,
    "facility_type":"Therapeutic Facility",
    "warden":"Stanley Dickerson",
    "street_address":"480 Green Chapel Road",
    "mailing_address":"P.O. Box 1150",
    "city":"Henning",
    "zip_code":"38041-1150",
    "county":"Lauderdale County",
    "phone":"(731) 738-5044",
    "security_level":null,
    "square_feet":null,
    "staff_count":null,
    "latitude":35.6701062,
    "longitude":-89.7433418
  },
  {
    "name":"Hardeman County Correctional Facility",
    "state":"Tennessee",
    "agency":"Tennessee Department of Correction (TDOC)",
    "detail_url":"https:\/\/www.tn.gov\/content\/tn\/correction\/state-prisons\/state-prison-list\/hardeman-county-correctional-facility.html",
    "capacity":null,
    "acres":null,
    "facility_type":"Correctional Facility",
    "warden":"Demetric Godfrey",
    "street_address":"2520 Union Springs Road",
    "mailing_address":"P.O. Box 549",
    "city":"Whiteville",
    "zip_code":"38075",
    "county":"Hardeman County",
    "phone":"(731) 254-6000",
    "security_level":"Medium",
    "square_feet":null,
    "staff_count":null,
    "latitude":35.2871928,
    "longitude":-89.1604831
  },
  {
    "name":"South Central Correctional Facility",
    "state":"Tennessee",
    "agency":"Tennessee Department of Correction (TDOC)",
    "detail_url":"https:\/\/www.tn.gov\/content\/tn\/correction\/state-prisons\/state-prison-list\/south-central-correctional-facility.html",
    "capacity":null,
    "acres":null,
    "facility_type":"Correctional Facility",
    "warden":"Grady Perry",
    "street_address":"555 Forest Avenue",
    "mailing_address":"P.O. Box 279",
    "city":"Clifton",
    "zip_code":"38425-0279",
    "county":"Wayne County",
    "phone":"(931) 676-2800",
    "security_level":null,
    "square_feet":null,
    "staff_count":null,
    "latitude":35.3672924,
    "longitude":-87.9989483
  },
  {
    "name":"Trousdale Turner Correctional Center",
    "state":"Tennessee",
    "agency":"Tennessee Department of Correction (TDOC)",
    "detail_url":"https:\/\/www.tn.gov\/content\/tn\/correction\/state-prisons\/state-prison-list\/trousdale-turner-correctional-center.html",
    "capacity":null,
    "acres":null,
    "facility_type":"Correctional Center",
    "warden":"Allen Beard, Jr.",
    "street_address":"140 Macon Way",
    "mailing_address":null,
    "city":"Hartsville",
    "zip_code":"37074",
    "county":"Trousdale County",
    "phone":"(615) 808-0400",
    "security_level":"Medium",
    "square_feet":null,
    "staff_count":null,
    "latitude":36.3515365,
    "longitude":-86.0919013
  },
  {
    "name":"Whiteville Correctional Facility",
    "state":"Tennessee",
    "agency":"Tennessee Department of Correction (TDOC)",
    "detail_url":"https:\/\/www.tn.gov\/content\/tn\/correction\/state-prisons\/state-prison-list\/whiteville-correctional-facility.html",
    "capacity":null,
    "acres":null,
    "facility_type":"Correctional Facility",
    "warden":"Robert Adams Jr.",
    "street_address":"1440 Union Springs Road",
    "mailing_address":"P.O. Box 679",
    "city":"Whiteville",
    "zip_code":"38075",
    "county":"Hardeman County",
    "phone":"(731) 254-9400",
    "security_level":null,
    "square_feet":null,
    "staff_count":null,
    "latitude":35.2994081,
    "longitude":-89.1531451
  }
]