{
"type": "FeatureCollection",
"name": "washington_prisons",
"crs": { "type": "name", "properties": { "name": "urn:ogc:def:crs:OGC:1.3:CRS84" } },
"features": [
{ "type": "Feature", "properties": { "state": "Washington", "agency": "Washington Department of Corrections (WADOC)", "name": "Tacoma Reentry Center", "street_address": "5601 6th Avenue", "city": "Tacoma", "zip_code": "98406", "phone": "(253) 342-7700", "detail_url": "https://doc.wa.gov/about-doc/locations/reentry-centers#tacoma-reentry", "facility_type": "Reentry Center", "latitude": 47.2570376, "longitude": -122.5111319, "gender": "Female", "capacity": null, "custody_level": null, "year_opened": null }, "geometry": { "type": "Point", "coordinates": [ -122.5111319, 47.2570376 ] } },
{ "type": "Feature", "properties": { "state": "Washington", "agency": "Washington Department of Corrections (WADOC)", "name": "Vancouver Justice Center", "street_address": "9105B NE Highway 99", "city": "Vancouver", "zip_code": "98665", "phone": "(360) 571-4350", "detail_url": "https://doc.wa.gov/about-doc/locations/community-justice-centers/vancouver-justice-center", "facility_type": "Justice Center", "latitude": 45.68836, "longitude": -122.659199, "gender": "Female", "capacity": null, "custody_level": null, "year_opened": null }, "geometry": { "type": "Point", "coordinates": [ -122.659199, 45.68836 ] } },
{ "type": "Feature", "properties": { "state": "Washington", "agency": "Washington Department of Corrections (WADOC)", "name": "Washington State Penitentiary (WSP)", "street_address": "1313 North 13th Avenue", "city": "Walla Walla", "zip_code": "99362", "phone": "(509) 525-3610", "detail_url": "https://doc.wa.gov/about-doc/locations/prison-facilities/washington-state-penitentiary-wsp", "facility_type": "State Penitentiary", "latitude": 46.0783565, "longitude": -118.3590148, "gender": "Male", "capacity": 2.0, "custody_level": "Maximum,", "year_opened": 1886.0 }, "geometry": { "type": "Point", "coordinates": [ -118.3590148, 46.0783565 ] } },
{ "type": "Feature", "properties": { "state": "Washington", "agency": "Washington Department of Corrections (WADOC)", "name": "Washington Corrections Center for Women (WCCW)", "street_address": "9601 Bujacich Rd. NW", "city": "Gig Harbor", "zip_code": "98332-8300", "phone": "(253) 858-4200", "detail_url": "https://doc.wa.gov/about-doc/locations/prison-facilities/washington-corrections-center-women-wccw", "facility_type": "Corrections Center", "latitude": 47.3474014, "longitude": -122.6131402, "gender": "Male", "capacity": 738.0, "custody_level": "Minimum,", "year_opened": 1971.0 }, "geometry": { "type": "Point", "coordinates": [ -122.6131402, 47.3474014 ] } },
{ "type": "Feature", "properties": { "state": "Washington", "agency": "Washington Department of Corrections (WADOC)", "name": "Washington Corrections Center (WCC)", "street_address": "2321 West Dayton Airport Road", "city": "Shelton", "zip_code": "98584", "phone": "(360) 426-4433", "detail_url": "https://doc.wa.gov/about-doc/locations/prison-facilities/washington-corrections-center-wcc", "facility_type": "Corrections Center", "latitude": 47.2368259, "longitude": -123.1923521, "gender": "Male", "capacity": 1.0, "custody_level": "Medium,", "year_opened": 1964.0 }, "geometry": { "type": "Point", "coordinates": [ -123.1923521, 47.2368259 ] } },
{ "type": "Feature", "properties": { "state": "Washington", "agency": "Washington Department of Corrections (WADOC)", "name": "Stafford Creek Corrections Center (SCCC)", "street_address": "191 Constantine Way", "city": "Aberdeen", "zip_code": "98520", "phone": "(360) 537-1800", "detail_url": "https://doc.wa.gov/about-doc/locations/prison-facilities/stafford-creek-corrections-center-sccc", "facility_type": "Corrections Center", "latitude": 46.9263171, "longitude": -123.916717, "gender": "Male", "capacity": 1.0, "custody_level": "Minimum,", "year_opened": 2000.0 }, "geometry": { "type": "Point", "coordinates": [ -123.916717, 46.9263171 ] } },
{ "type": "Feature", "properties": { "state": "Washington", "agency": "Washington Department of Corrections (WADOC)", "name": "Olympic Corrections Center (OCC)", "street_address": "11235 Hoh Mainline", "city": "Forks", "zip_code": "98331", "phone": "(360) 374-7000", "detail_url": "https://doc.wa.gov/about-doc/locations/prison-facilities/olympic-corrections-center-occ", "facility_type": "Corrections Center", "latitude": 47.7178656, "longitude": -124.1339443, "gender": "Male", "capacity": 272.0, "custody_level": "Minimum", "year_opened": 1968.0 }, "geometry": { "type": "Point", "coordinates": [ -124.1339443, 47.7178656 ] } },
{ "type": "Feature", "properties": { "state": "Washington", "agency": "Washington Department of Corrections (WADOC)", "name": "Monroe Correctional Complex (MCC)", "street_address": "16550 177th Avenue SE", "city": "Monroe", "zip_code": "98272", "phone": "(360) 794-2600", "detail_url": "https://doc.wa.gov/about-doc/locations/prison-facilities/monroe-correctional-complex-mcc", "facility_type": "Correctional Complex", "latitude": 47.843785, "longitude": -122.002219, "gender": "Male", "capacity": 2.0, "custody_level": "Maximum,", "year_opened": 1910.0 }, "geometry": { "type": "Point", "coordinates": [ -122.002219, 47.843785 ] } },
{ "type": "Feature", "properties": { "state": "Washington", "agency": "Washington Department of Corrections (WADOC)", "name": "Mission Creek Corrections Center for Women (MCCCW)", "street_address": "3420 NE Sand Hill Road", "city": "Belfair", "zip_code": "98528", "phone": "(360) 277-2400", "detail_url": "https://doc.wa.gov/about-doc/locations/prison-facilities/mission-creek-corrections-center-women-mcccw", "facility_type": "Corrections Center", "latitude": 47.483759, "longitude": -122.86439, "gender": "Male", "capacity": 321.0, "custody_level": "Minimum", "year_opened": 2005.0 }, "geometry": { "type": "Point", "coordinates": [ -122.86439, 47.483759 ] } },
{ "type": "Feature", "properties": { "state": "Washington", "agency": "Washington Department of Corrections (WADOC)", "name": "Coyote Ridge Corrections Center (CRCC)", "street_address": "1301 N Ephrata Ave", "city": "Connell", "zip_code": "99326", "phone": "(509) 543-5800", "detail_url": "https://doc.wa.gov/about-doc/locations/prison-facilities/coyote-ridge-corrections-center-crcc", "facility_type": "Corrections Center", "latitude": 46.680059, "longitude": -118.852175, "gender": "Male", "capacity": 2.0, "custody_level": "Minimum,", "year_opened": null }, "geometry": { "type": "Point", "coordinates": [ -118.852175, 46.680059 ] } }
]
}
