{
"type": "FeatureCollection",
"name": "georgia_prisons",
"crs": { "type": "name", "properties": { "name": "urn:ogc:def:crs:OGC:1.3:CRS84" } },
"features": [
{ "type": "Feature", "properties": { "name": "Appling ITF", "latitude": 31.802111, "longitude": -82.410142, "entity_id": 3186, "facility_url": "https://gdc.georgia.gov/locations/appling-itf", "state": "GA", "agency": "Georgia Department of Corrections (GDC)", "street_address": "19 Response\n\n\n\n Federal Bonding Program\n\n\n\n Find an Offender\n\n\n\n Georgia Release Card Information\n\n\n\n Incarcerated Veterans\n\n\n\n Performance Incentive Credit Program\n\n\n\n St", "city": "West Park Drive\nBaxley", "zip_code": "31513", "phone": "(912) 367-1774", "description": "An official website of the State of Georgia.\n\n            How you know", "capacity": 206.0, "security_level": "Medium" }, "geometry": { "type": "Point", "coordinates": [ -82.410142, 31.802111 ] } },
{ "type": "Feature", "properties": { "name": "Arrendale Transitional Center", "latitude": 34.465703, "longitude": -83.576129, "entity_id": 3196, "facility_url": "https://gdc.georgia.gov/locations/arrendale-transitional-center", "state": "GA", "agency": "Georgia Department of Corrections (GDC)", "street_address": "19 Response\n\n\n\n Federal Bonding Program\n\n\n\n Find an Offender\n\n\n\n Georgia Release Card Information\n\n\n\n Incarcerated Veterans\n\n\n\n Performance Incentive Credit Program\n\n\n\n St", "city": "Old Gainesville Hwy\nAlto", "zip_code": "30510", "phone": "(706) 776-0845", "description": "An official website of the State of Georgia.\n\n            How you know", "capacity": 117.0, "security_level": "Minimum" }, "geometry": { "type": "Point", "coordinates": [ -83.576129, 34.465703 ] } },
{ "type": "Feature", "properties": { "name": "Atlanta Transitional Center", "latitude": 33.772701, "longitude": -84.376424, "entity_id": 3201, "facility_url": "https://gdc.georgia.gov/locations/atlanta-transitional-center", "state": "GA", "agency": "Georgia Department of Corrections (GDC)", "street_address": "19 Response\n\n\n\n Federal Bonding Program\n\n\n\n Find an Offender\n\n\n\n Georgia Release Card Information\n\n\n\n Incarcerated Veterans\n\n\n\n Performance Incentive Credit Program\n\n\n\n St", "city": "Ne\nAtlanta", "zip_code": "30308", "phone": "(404) 206-5103", "description": "An official website of the State of Georgia.\n\n            How you know", "capacity": 257.0, "security_level": "Minimum" }, "geometry": { "type": "Point", "coordinates": [ -84.376424, 33.772701 ] } },
{ "type": "Feature", "properties": { "name": "Augusta State Med. Prison", "latitude": 33.432243, "longitude": -82.188336, "entity_id": 3206, "facility_url": "https://gdc.georgia.gov/locations/augusta-state-med-prison", "state": "GA", "agency": "Georgia Department of Corrections (GDC)", "street_address": "19 Response\n\n\n\n Federal Bonding Program\n\n\n\n Find an Offender\n\n\n\n Georgia Release Card Information\n\n\n\n Incarcerated Veterans\n\n\n\n Performance Incentive Credit Program\n\n\n\n St", "city": "Gordon Hwy\nGrovetown", "zip_code": "30813", "phone": "(706) 855-4700", "description": "An official website of the State of Georgia.\n\n            How you know", "capacity": 1326.0, "security_level": "Close" }, "geometry": { "type": "Point", "coordinates": [ -82.188336, 33.432243 ] } },
{ "type": "Feature", "properties": { "name": "Augusta Transitional Center", "latitude": 33.466371, "longitude": -81.966826, "entity_id": 3211, "facility_url": "https://gdc.georgia.gov/locations/augusta-transitional-center", "state": "GA", "agency": "Georgia Department of Corrections (GDC)", "street_address": "19 Response\n\n\n\n Federal Bonding Program\n\n\n\n Find an Offender\n\n\n\n Georgia Release Card Information\n\n\n\n Incarcerated Veterans\n\n\n\n Performance Incentive Credit Program\n\n\n\n St", "city": "Taylor Street\nAugusta", "zip_code": "30901", "phone": "(706) 721-1650", "description": "An official website of the State of Georgia.\n\n            How you know", "capacity": 230.0, "security_level": "Minimum" }, "geometry": { "type": "Point", "coordinates": [ -81.966826, 33.466371 ] } },
{ "type": "Feature", "properties": { "name": "Autry State Prison", "latitude": 31.188079, "longitude": -84.14475, "entity_id": 3216, "facility_url": "https://gdc.georgia.gov/locations/autry-state-prison", "state": "GA", "agency": "Georgia Department of Corrections (GDC)", "street_address": "19 Response\n\n\n\n Federal Bonding Program\n\n\n\n Find an Offender\n\n\n\n Georgia Release Card Information\n\n\n\n Incarcerated Veterans\n\n\n\n Performance Incentive Credit Program\n\n\n\n St", "city": "Mount Zion Church Road\nPelham", "zip_code": "31779", "phone": "(229) 294-2940", "description": "An official website of the State of Georgia.\n\n            How you know", "capacity": 1698.0, "security_level": "Medium" }, "geometry": { "type": "Point", "coordinates": [ -84.14475, 31.188079 ] } },
{ "type": "Feature", "properties": { "name": "Bacon Probation Detention Center", "latitude": 31.547369, "longitude": -82.511526, "entity_id": 3226, "facility_url": "https://gdc.georgia.gov/locations/bacon-probation-detention-center", "state": "GA", "agency": "Georgia Department of Corrections (GDC)", "street_address": "19 Response\n\n\n\n Federal Bonding Program\n\n\n\n Find an Offender\n\n\n\n Georgia Release Card Information\n\n\n\n Incarcerated Veterans\n\n\n\n Performance Incentive Credit Program\n\n\n\n St", "city": "Eastside Industrial Boulevard\nAlma", "zip_code": "31510", "phone": "(912) 632-8157", "description": "An official website of the State of Georgia.\n\n            How you know", "capacity": null, "security_level": null }, "geometry": { "type": "Point", "coordinates": [ -82.511526, 31.547369 ] } },
{ "type": "Feature", "properties": { "name": "Bacon Transitional Center", "latitude": 31.547369, "longitude": -82.511526, "entity_id": 3231, "facility_url": "https://gdc.georgia.gov/locations/bacon-transitional-center", "state": "GA", "agency": "Georgia Department of Corrections (GDC)", "street_address": "19 Response\n\n\n\n Federal Bonding Program\n\n\n\n Find an Offender\n\n\n\n Georgia Release Card Information\n\n\n\n Incarcerated Veterans\n\n\n\n Performance Incentive Credit Program\n\n\n\n St", "city": "Eastside Industrial Boulevard\nAlma", "zip_code": "31510", "phone": "(912) 632-8157", "description": "An official website of the State of Georgia.\n\n            How you know", "capacity": null, "security_level": null }, "geometry": { "type": "Point", "coordinates": [ -82.511526, 31.547369 ] } },
{ "type": "Feature", "properties": { "name": "Bainbridge Substance Abuse Center", "latitude": 30.982665, "longitude": -84.636263, "entity_id": 3236, "facility_url": "https://gdc.georgia.gov/locations/bainbridge-substance-abuse-center", "state": "GA", "agency": "Georgia Department of Corrections (GDC)", "street_address": "19 Response\n\n\n\n Federal Bonding Program\n\n\n\n Find an Offender\n\n\n\n Georgia Release Card Information\n\n\n\n Incarcerated Veterans\n\n\n\n Performance Incentive Credit Program\n\n\n\n St", "city": "State Hospital Road\nBainbridge", "zip_code": "39817", "phone": "(229) 248-2463", "description": "An official website of the State of Georgia.\n\n            How you know", "capacity": null, "security_level": null }, "geometry": { "type": "Point", "coordinates": [ -84.636263, 30.982665 ] } },
{ "type": "Feature", "properties": { "name": "Baldwin State Prison", "latitude": 33.024835, "longitude": -83.221321, "entity_id": 3251, "facility_url": "https://gdc.georgia.gov/locations/baldwin-state-prison", "state": "GA", "agency": "Georgia Department of Corrections (GDC)", "street_address": "19 Response\n\n\n\n Federal Bonding Program\n\n\n\n Find an Offender\n\n\n\n Georgia Release Card Information\n\n\n\n Incarcerated Veterans\n\n\n\n Performance Incentive Credit Program\n\n\n\n St", "city": "Laying Farm Road\nHardwick", "zip_code": "31034", "phone": "(478) 445-5218", "description": "An official website of the State of Georgia.\n\n            How you know", "capacity": 925.0, "security_level": "close" }, "geometry": { "type": "Point", "coordinates": [ -83.221321, 33.024835 ] } },
{ "type": "Feature", "properties": { "name": "Bleckley", "latitude": 32.412084, "longitude": -83.363864, "entity_id": 3281, "facility_url": "https://gdc.georgia.gov/locations/bleckley", "state": "GA", "agency": "Georgia Department of Corrections (GDC)", "street_address": "19 Response\n\n\n\n Federal Bonding Program\n\n\n\n Find an Offender\n\n\n\n Georgia Release Card Information\n\n\n\n Incarcerated Veterans\n\n\n\n Performance Incentive Credit Program\n\n\n\n St", "city": "Cochran", "zip_code": "31014", "phone": "(478) 934-3303", "description": "An official website of the State of Georgia.\n\n            How you know", "capacity": 238.0, "security_level": null }, "geometry": { "type": "Point", "coordinates": [ -83.363864, 32.412084 ] } },
{ "type": "Feature", "properties": { "name": "Burruss Correctional Training Ctr", "latitude": 33.059162, "longitude": -83.963429, "entity_id": 3316, "facility_url": "https://gdc.georgia.gov/locations/burruss-correctional-training-ctr", "state": "GA", "agency": "Georgia Department of Corrections (GDC)", "street_address": "19 Response\n\n\n\n Federal Bonding Program\n\n\n\n Find an Offender\n\n\n\n Georgia Release Card Information\n\n\n\n Incarcerated Veterans\n\n\n\n Performance Incentive Credit Program\n\n\n\n St", "city": "Indian Springs Drive\nForsyth", "zip_code": "31029", "phone": "(478) 994-7512", "description": "An official website of the State of Georgia.\n\n            How you know", "capacity": 806.0, "security_level": "Medium" }, "geometry": { "type": "Point", "coordinates": [ -83.963429, 33.059162 ] } },
{ "type": "Feature", "properties": { "name": "Calhoun State Prison", "latitude": 31.539611, "longitude": -84.616596, "entity_id": 3331, "facility_url": "https://gdc.georgia.gov/locations/calhoun-state-prison", "state": "GA", "agency": "Georgia Department of Corrections (GDC)", "street_address": "19 Response\n\n\n\n Federal Bonding Program\n\n\n\n Find an Offender\n\n\n\n Georgia Release Card Information\n\n\n\n Incarcerated Veterans\n\n\n\n Performance Incentive Credit Program\n\n\n\n St", "city": "Main Street\nMorgan", "zip_code": "39866", "phone": "(229) 849-5000", "description": "An official website of the State of Georgia.\n\n            How you know", "capacity": 1.0, "security_level": "Medium" }, "geometry": { "type": "Point", "coordinates": [ -84.616596, 31.539611 ] } },
{ "type": "Feature", "properties": { "name": "Central State Prison", "latitude": 32.777594, "longitude": -83.751121, "entity_id": 3356, "facility_url": "https://gdc.georgia.gov/locations/central-state-prison", "state": "GA", "agency": "Georgia Department of Corrections (GDC)", "street_address": "19 Response\n\n\n\n Federal Bonding Program\n\n\n\n Find an Offender\n\n\n\n Georgia Release Card Information\n\n\n\n Incarcerated Veterans\n\n\n\n Performance Incentive Credit Program\n\n\n\n St", "city": "Fulton Mill Road\nMacon", "zip_code": "31208", "phone": "(478) 471-2908", "description": "An official website of the State of Georgia.\n\n            How you know", "capacity": 1153.0, "security_level": "Medium" }, "geometry": { "type": "Point", "coordinates": [ -83.751121, 32.777594 ] } },
{ "type": "Feature", "properties": { "name": "Charles D. Hudson Transitional Center", "latitude": 33.024806, "longitude": -84.969482, "entity_id": 3361, "facility_url": "https://gdc.georgia.gov/locations/charles-d-hudson-transitional-center", "state": "GA", "agency": "Georgia Department of Corrections (GDC)", "street_address": "19 Response\n\n\n\n Federal Bonding Program\n\n\n\n Find an Offender\n\n\n\n Georgia Release Card Information\n\n\n\n Incarcerated Veterans\n\n\n\n Performance Incentive Credit Program\n\n\n\n St", "city": "Jim Hester Road\nLagrange", "zip_code": "30241", "phone": "(706) 845-4018", "description": "An official website of the State of Georgia.\n\n            How you know", "capacity": 155.0, "security_level": "Minimum" }, "geometry": { "type": "Point", "coordinates": [ -84.969482, 33.024806 ] } },
{ "type": "Feature", "properties": { "name": "Clayton Transitional Center", "latitude": 33.624355, "longitude": -84.397662, "entity_id": 3416, "facility_url": "https://gdc.georgia.gov/locations/clayton-transitional-center", "state": "GA", "agency": "Georgia Department of Corrections (GDC)", "street_address": "19 Response\n\n\n\n Federal Bonding Program\n\n\n\n Find an Offender\n\n\n\n Georgia Release Card Information\n\n\n\n Incarcerated Veterans\n\n\n\n Performance Incentive Credit Program\n\n\n\n St", "city": "Falcon Dr\nForest Park", "zip_code": "30297", "phone": "(404) 675-1500", "description": "An official website of the State of Georgia.\n\n            How you know", "capacity": 376.0, "security_level": "Minimum" }, "geometry": { "type": "Point", "coordinates": [ -84.397662, 33.624355 ] } },
{ "type": "Feature", "properties": { "name": "Coastal State Prison", "latitude": 32.138131, "longitude": -81.187582, "entity_id": 3426, "facility_url": "https://gdc.georgia.gov/locations/coastal-state-prison", "state": "GA", "agency": "Georgia Department of Corrections (GDC)", "street_address": "19 Response\n\n\n\n Federal Bonding Program\n\n\n\n Find an Offender\n\n\n\n Georgia Release Card Information\n\n\n\n Incarcerated Veterans\n\n\n\n Performance Incentive Credit Program\n\n\n\n St", "city": "Gulf Stream Road\nGarden City", "zip_code": "31418", "phone": "(912) 966-6799", "description": "An official website of the State of Georgia.\n\n            How you know", "capacity": 1836.0, "security_level": "Medium" }, "geometry": { "type": "Point", "coordinates": [ -81.187582, 32.138131 ] } },
{ "type": "Feature", "properties": { "name": "Coffee Correctional Institution", "latitude": 31.526962, "longitude": -82.635166, "entity_id": 3436, "facility_url": "https://gdc.georgia.gov/locations/coffee-correctional-institution", "state": "GA", "agency": "Georgia Department of Corrections (GDC)", "street_address": "19 Response\n\n\n\n Federal Bonding Program\n\n\n\n Find an Offender\n\n\n\n Georgia Release Card Information\n\n\n\n Incarcerated Veterans\n\n\n\n Performance Incentive Credit Program\n\n\n\n St", "city": "North Liberty Street\nNicholls", "zip_code": "31554", "phone": "(912) 345-5058", "description": "An official website of the State of Georgia.\n\n            How you know", "capacity": 2628.0, "security_level": "Medium" }, "geometry": { "type": "Point", "coordinates": [ -82.635166, 31.526962 ] } },
{ "type": "Feature", "properties": { "name": "Columbus Transitional Center", "latitude": 32.493423, "longitude": -84.868822, "entity_id": 3461, "facility_url": "https://gdc.georgia.gov/locations/columbus-transitional-center", "state": "GA", "agency": "Georgia Department of Corrections (GDC)", "street_address": "19 Response\n\n\n\n Federal Bonding Program\n\n\n\n Find an Offender\n\n\n\n Georgia Release Card Information\n\n\n\n Incarcerated Veterans\n\n\n\n Performance Incentive Credit Program\n\n\n\n St", "city": "Schatulga Rd\nColumbus", "zip_code": "31909", "phone": "(706) 568-2167", "description": "An official website of the State of Georgia.\n\n            How you know", "capacity": 182.0, "security_level": "Minimum" }, "geometry": { "type": "Point", "coordinates": [ -84.868822, 32.493423 ] } },
{ "type": "Feature", "properties": { "name": "Colwell Probation Detention Center", "latitude": 34.875602, "longitude": -83.943802, "entity_id": 3466, "facility_url": "https://gdc.georgia.gov/locations/colwell-probation-detention-center", "state": "GA", "agency": "Georgia Department of Corrections (GDC)", "street_address": "19 Response\n\n\n\n Federal Bonding Program\n\n\n\n Find an Offender\n\n\n\n Georgia Release Card Information\n\n\n\n Incarcerated Veterans\n\n\n\n Performance Incentive Credit Program\n\n\n\n St", "city": "Beasley Street\nBlairsville", "zip_code": "30512", "phone": "(706) 745-3610", "description": "An official website of the State of Georgia.\n\n            How you know", "capacity": null, "security_level": null }, "geometry": { "type": "Point", "coordinates": [ -83.943802, 34.875602 ] } },
{ "type": "Feature", "properties": { "name": "Dodge State Prison", "latitude": 32.393455, "longitude": -83.167584, "entity_id": 3521, "facility_url": "https://gdc.georgia.gov/locations/dodge-state-prison", "state": "GA", "agency": "Georgia Department of Corrections (GDC)", "street_address": "19 Response\n\n\n\n Federal Bonding Program\n\n\n\n Find an Offender\n\n\n\n Georgia Release Card Information\n\n\n\n Incarcerated Veterans\n\n\n\n Performance Incentive Credit Program\n\n\n\n St", "city": "Old Bethel Church Road\nChester", "zip_code": "31012", "phone": "(478) 358-7201", "description": "An official website of the State of Georgia.\n\n            How you know", "capacity": 1.0, "security_level": "Medium" }, "geometry": { "type": "Point", "coordinates": [ -83.167584, 32.393455 ] } },
{ "type": "Feature", "properties": { "name": "Dooly State Prison", "latitude": 32.282548, "longitude": -83.719512, "entity_id": 3531, "facility_url": "https://gdc.georgia.gov/locations/dooly-state-prison", "state": "GA", "agency": "Georgia Department of Corrections (GDC)", "street_address": "19 Response\n\n\n\n Federal Bonding Program\n\n\n\n Find an Offender\n\n\n\n Georgia Release Card Information\n\n\n\n Incarcerated Veterans\n\n\n\n Performance Incentive Credit Program\n\n\n\n St", "city": "Plunkett Road\nUnadilla", "zip_code": "31091", "phone": "(478) 627-2000", "description": "An official website of the State of Georgia.\n\n            How you know", "capacity": 1702.0, "security_level": "Medium" }, "geometry": { "type": "Point", "coordinates": [ -83.719512, 32.282548 ] } },
{ "type": "Feature", "properties": { "name": "Emanuel Detention Center", "latitude": 32.572547, "longitude": -82.160074, "entity_id": 3576, "facility_url": "https://gdc.georgia.gov/locations/emanuel-detention-center", "state": "GA", "agency": "Georgia Department of Corrections (GDC)", "street_address": "19 Response\n\n\n\n Federal Bonding Program\n\n\n\n Find an Offender\n\n\n\n Georgia Release Card Information\n\n\n\n Incarcerated Veterans\n\n\n\n Performance Incentive Credit Program\n\n\n\n St", "city": "Casa Drive\nTwin City", "zip_code": "30471", "phone": "(478) 763-2400", "description": "An official website of the State of Georgia.\n\n            How you know", "capacity": 369.0, "security_level": "Medium" }, "geometry": { "type": "Point", "coordinates": [ -82.160074, 32.572547 ] } },
{ "type": "Feature", "properties": { "name": "Emanuel Womens Facility", "latitude": 32.613116, "longitude": -82.356992, "entity_id": 3581, "facility_url": "https://gdc.georgia.gov/locations/emanuel-womens-facility", "state": "GA", "agency": "Georgia Department of Corrections (GDC)", "street_address": "19 Response\n\n\n\n Federal Bonding Program\n\n\n\n Find an Offender\n\n\n\n Georgia Release Card Information\n\n\n\n Incarcerated Veterans\n\n\n\n Performance Incentive Credit Program\n\n\n\n St", "city": "Gumlog Road\nSwainsboro", "zip_code": "30401", "phone": "(478) 289-2748", "description": "An official website of the State of Georgia.\n\n            How you know", "capacity": 415.0, "security_level": null }, "geometry": { "type": "Point", "coordinates": [ -82.356992, 32.613116 ] } },
{ "type": "Feature", "properties": { "name": "GA Diagnostic Class Prison", "latitude": 33.220645, "longitude": -84.061176, "entity_id": 3621, "facility_url": "https://gdc.georgia.gov/locations/ga-diagnostic-class-prison", "state": "GA", "agency": "Georgia Department of Corrections (GDC)", "street_address": "19 Response\n\n\n\n Federal Bonding Program\n\n\n\n Find an Offender\n\n\n\n Georgia Release Card Information\n\n\n\n Incarcerated Veterans\n\n\n\n Performance Incentive Credit Program\n\n\n\n St", "city": "West Prison Blvd\nJackson", "zip_code": "30233", "phone": "(770) 504-2000", "description": "An official website of the State of Georgia.\n\n            How you know", "capacity": 2487.0, "security_level": "Close" }, "geometry": { "type": "Point", "coordinates": [ -84.061176, 33.220645 ] } },
{ "type": "Feature", "properties": { "name": "Hancock State Prison", "latitude": 33.245706, "longitude": -82.949168, "entity_id": 3681, "facility_url": "https://gdc.georgia.gov/locations/hancock-state-prison", "state": "GA", "agency": "Georgia Department of Corrections (GDC)", "street_address": "19 Response\n\n\n\n Federal Bonding Program\n\n\n\n Find an Offender\n\n\n\n Georgia Release Card Information\n\n\n\n Incarcerated Veterans\n\n\n\n Performance Incentive Credit Program\n\n\n\n St", "city": "Prison Blvd\nSparta", "zip_code": "31087", "phone": "(706) 444-1000", "description": "An official website of the State of Georgia.\n\n            How you know", "capacity": 1.0, "security_level": "Close" }, "geometry": { "type": "Point", "coordinates": [ -82.949168, 33.245706 ] } },
{ "type": "Feature", "properties": { "name": "Hays State Prison", "latitude": 34.511296, "longitude": -85.312208, "entity_id": 3706, "facility_url": "https://gdc.georgia.gov/locations/hays-state-prison", "state": "GA", "agency": "Georgia Department of Corrections (GDC)", "street_address": "19 Response\n\n\n\n Federal Bonding Program\n\n\n\n Find an Offender\n\n\n\n Georgia Release Card Information\n\n\n\n Incarcerated Veterans\n\n\n\n Performance Incentive Credit Program\n\n\n\n St", "city": "Underwood Drive\nTrion", "zip_code": "30753", "phone": "(706) 857-0400", "description": "An official website of the State of Georgia.\n\n            How you know", "capacity": 1.0, "security_level": "Close" }, "geometry": { "type": "Point", "coordinates": [ -85.312208, 34.511296 ] } },
{ "type": "Feature", "properties": { "name": "Helms Facility", "latitude": 33.688617, "longitude": -84.338223, "entity_id": 3716, "facility_url": "https://gdc.georgia.gov/locations/helms-facility", "state": "GA", "agency": "Georgia Department of Corrections (GDC)", "street_address": "19 Response\n\n\n\n Federal Bonding Program\n\n\n\n Find an Offender\n\n\n\n Georgia Release Card Information\n\n\n\n Incarcerated Veterans\n\n\n\n Performance Incentive Credit Program\n\n\n\n St", "city": "Constitution Rd Se\nAtlanta", "zip_code": "30316", "phone": "(404) 624-2413", "description": "An official website of the State of Georgia.\n\n            How you know", "capacity": 64.0, "security_level": null }, "geometry": { "type": "Point", "coordinates": [ -84.338223, 33.688617 ] } },
{ "type": "Feature", "properties": { "name": "Jenkins Correctional Facility", "latitude": 32.789701, "longitude": -81.924512, "entity_id": 3761, "facility_url": "https://gdc.georgia.gov/locations/jenkins-correctional-facility", "state": "GA", "agency": "Georgia Department of Corrections (GDC)", "street_address": "19 Response\n\n\n\n Federal Bonding Program\n\n\n\n Find an Offender\n\n\n\n Georgia Release Card Information\n\n\n\n Incarcerated Veterans\n\n\n\n Performance Incentive Credit Program\n\n\n\n St", "city": "Kent Farm Drive\nMillen", "zip_code": "30442", "phone": "(478) 982-6300", "description": "An official website of the State of Georgia.\n\n            How you know", "capacity": 1186.0, "security_level": "Medium" }, "geometry": { "type": "Point", "coordinates": [ -81.924512, 32.789701 ] } },
{ "type": "Feature", "properties": { "name": "Johnson State Prison", "latitude": 32.742635, "longitude": -82.702517, "entity_id": 3771, "facility_url": "https://gdc.georgia.gov/locations/johnson-state-prison", "state": "GA", "agency": "Georgia Department of Corrections (GDC)", "street_address": "19 Response\n\n\n\n Federal Bonding Program\n\n\n\n Find an Offender\n\n\n\n Georgia Release Card Information\n\n\n\n Incarcerated Veterans\n\n\n\n Performance Incentive Credit Program\n\n\n\n St", "city": "Harrison Road\nWrightsville", "zip_code": "31096", "phone": "(478) 864-4100", "description": "An official website of the State of Georgia.\n\n            How you know", "capacity": 1612.0, "security_level": "Medium" }, "geometry": { "type": "Point", "coordinates": [ -82.702517, 32.742635 ] } },
{ "type": "Feature", "properties": { "name": "Lee Arrendale State Prison", "latitude": 34.450715, "longitude": -83.593325, "entity_id": 3796, "facility_url": "https://gdc.georgia.gov/locations/lee-arrendale-state-prison", "state": "GA", "agency": "Georgia Department of Corrections (GDC)", "street_address": "19 Response\n\n\n\n Federal Bonding Program\n\n\n\n Find an Offender\n\n\n\n Georgia Release Card Information\n\n\n\n Incarcerated Veterans\n\n\n\n Performance Incentive Credit Program\n\n\n\n St", "city": "Gainesville Hwy\nAlto", "zip_code": "30510", "phone": "(706) 776-4700", "description": "An official website of the State of Georgia.\n\n            How you know", "capacity": 1476.0, "security_level": "SPECIAL" }, "geometry": { "type": "Point", "coordinates": [ -83.593325, 34.450715 ] } },
{ "type": "Feature", "properties": { "name": "Lee State Prison", "latitude": 31.763564, "longitude": -84.193744, "entity_id": 3806, "facility_url": "https://gdc.georgia.gov/locations/lee-state-prison", "state": "GA", "agency": "Georgia Department of Corrections (GDC)", "street_address": "19 Response\n\n\n\n Federal Bonding Program\n\n\n\n Find an Offender\n\n\n\n Georgia Release Card Information\n\n\n\n Incarcerated Veterans\n\n\n\n Performance Incentive Credit Program\n\n\n\n St", "city": "Pinewood Drive\nLeesburg", "zip_code": "31763", "phone": "(229) 759-3110", "description": "An official website of the State of Georgia.\n\n            How you know", "capacity": 762.0, "security_level": "Medium" }, "geometry": { "type": "Point", "coordinates": [ -84.193744, 31.763564 ] } },
{ "type": "Feature", "properties": { "name": "Long Unit", "latitude": 31.721394, "longitude": -81.729521, "entity_id": 3826, "facility_url": "https://gdc.georgia.gov/locations/long-unit", "state": "GA", "agency": "Georgia Department of Corrections (GDC)", "street_address": "19 Response\n\n\n\n Federal Bonding Program\n\n\n\n Find an Offender\n\n\n\n Georgia Release Card Information\n\n\n\n Incarcerated Veterans\n\n\n\n Performance Incentive Credit Program\n\n\n\n St", "city": "East\nLudowici", "zip_code": "31316", "phone": "(912) 545-3777", "description": "An official website of the State of Georgia.\n\n            How you know", "capacity": 212.0, "security_level": "Medium" }, "geometry": { "type": "Point", "coordinates": [ -81.729521, 31.721394 ] } },
{ "type": "Feature", "properties": { "name": "Macon State Prison", "latitude": 32.259163, "longitude": -84.089404, "entity_id": 3841, "facility_url": "https://gdc.georgia.gov/locations/macon-state-prison", "state": "GA", "agency": "Georgia Department of Corrections (GDC)", "street_address": "19 Response\n\n\n\n Federal Bonding Program\n\n\n\n Find an Offender\n\n\n\n Georgia Release Card Information\n\n\n\n Incarcerated Veterans\n\n\n\n Performance Incentive Credit Program\n\n\n\n St", "city": "South\nOglethorpe", "zip_code": "31068", "phone": "(478) 472-3400", "description": "An official website of the State of Georgia.\n\n            How you know", "capacity": 1762.0, "security_level": "Close" }, "geometry": { "type": "Point", "coordinates": [ -84.089404, 32.259163 ] } },
{ "type": "Feature", "properties": { "name": "Macon Transitional Center", "latitude": 32.815046, "longitude": -83.637711, "entity_id": 3846, "facility_url": "https://gdc.georgia.gov/locations/macon-transitional-center", "state": "GA", "agency": "Georgia Department of Corrections (GDC)", "street_address": "19 Response\n\n\n\n Federal Bonding Program\n\n\n\n Find an Offender\n\n\n\n Georgia Release Card Information\n\n\n\n Incarcerated Veterans\n\n\n\n Performance Incentive Credit Program\n\n\n\n St", "city": "Henry Street\nMacon", "zip_code": "31206", "phone": "(478) 751-6090", "description": "An official website of the State of Georgia.\n\n            How you know", "capacity": 156.0, "security_level": "Minimum" }, "geometry": { "type": "Point", "coordinates": [ -83.637711, 32.815046 ] } },
{ "type": "Feature", "properties": { "name": "McEver Detention Center", "latitude": 32.464914, "longitude": -83.695252, "entity_id": 3866, "facility_url": "https://gdc.georgia.gov/locations/mcever-detention-center", "state": "GA", "agency": "Georgia Department of Corrections (GDC)", "street_address": "19 Response\n\n\n\n Federal Bonding Program\n\n\n\n Find an Offender\n\n\n\n Georgia Release Card Information\n\n\n\n Incarcerated Veterans\n\n\n\n Performance Incentive Credit Program\n\n\n\n St", "city": "Perry", "zip_code": "31069", "phone": "(478) 988-7024", "description": "An official website of the State of Georgia.\n\n            How you know", "capacity": null, "security_level": null }, "geometry": { "type": "Point", "coordinates": [ -83.695252, 32.464914 ] } },
{ "type": "Feature", "properties": { "name": "Metro Reentry Facility", "latitude": 33.686626, "longitude": -84.33658, "entity_id": 3881, "facility_url": "https://gdc.georgia.gov/locations/metro-reentry-facility", "state": "GA", "agency": "Georgia Department of Corrections (GDC)", "street_address": "19 Response\n\n\n\n Federal Bonding Program\n\n\n\n Find an Offender\n\n\n\n Georgia Release Card Information\n\n\n\n Incarcerated Veterans\n\n\n\n Performance Incentive Credit Program\n\n\n\n St", "city": "Constitution Road Se\nAtlanta", "zip_code": "30316", "phone": "(404) 460-2100", "description": "An official website of the State of Georgia.\n\n            How you know", "capacity": 355.0, "security_level": "Medium" }, "geometry": { "type": "Point", "coordinates": [ -84.33658, 33.686626 ] } },
{ "type": "Feature", "properties": { "name": "Metro Transitional Center", "latitude": 33.688458, "longitude": -84.336662, "entity_id": 3886, "facility_url": "https://gdc.georgia.gov/locations/metro-transitional-center", "state": "GA", "agency": "Georgia Department of Corrections (GDC)", "street_address": "19 Response\n\n\n\n Federal Bonding Program\n\n\n\n Find an Offender\n\n\n\n Georgia Release Card Information\n\n\n\n Incarcerated Veterans\n\n\n\n Performance Incentive Credit Program\n\n\n\n St", "city": "Constitution Road\nAtlanta", "zip_code": "30316", "phone": "(404) 624-2380", "description": "An official website of the State of Georgia.\n\n            How you know", "capacity": 235.0, "security_level": "Minimum" }, "geometry": { "type": "Point", "coordinates": [ -84.336662, 33.688458 ] } },
{ "type": "Feature", "properties": { "name": "Montgomery State Prison", "latitude": 32.159938, "longitude": -82.567518, "entity_id": 3916, "facility_url": "https://gdc.georgia.gov/locations/montgomery-state-prison", "state": "GA", "agency": "Georgia Department of Corrections (GDC)", "street_address": "19 Response\n\n\n\n Federal Bonding Program\n\n\n\n Find an Offender\n\n\n\n Georgia Release Card Information\n\n\n\n Incarcerated Veterans\n\n\n\n Performance Incentive Credit Program\n\n\n\n St", "city": "Vernon", "zip_code": "30445", "phone": "(912) 583-3600", "description": "An official website of the State of Georgia.\n\n            How you know", "capacity": 900.0, "security_level": "Medium" }, "geometry": { "type": "Point", "coordinates": [ -82.567518, 32.159938 ] } },
{ "type": "Feature", "properties": { "name": "Northwest RSAT Center", "latitude": 34.810693, "longitude": -85.260888, "entity_id": 3946, "facility_url": "https://gdc.georgia.gov/locations/northwest-rsat-center", "state": "GA", "agency": "Georgia Department of Corrections (GDC)", "street_address": "19 Response\n\n\n\n Federal Bonding Program\n\n\n\n Find an Offender\n\n\n\n Georgia Release Card Information\n\n\n\n Incarcerated Veterans\n\n\n\n Performance Incentive Credit Program\n\n\n\n St", "city": "Kevin Lane\nRock Spring", "zip_code": "30739", "phone": "(706) 764-3742", "description": "An official website of the State of Georgia.\n\n            How you know", "capacity": null, "security_level": null }, "geometry": { "type": "Point", "coordinates": [ -85.260888, 34.810693 ] } },
{ "type": "Feature", "properties": { "name": "Patten PDC", "latitude": 31.033714, "longitude": -83.06143, "entity_id": 3961, "facility_url": "https://gdc.georgia.gov/locations/patten-pdc", "state": "GA", "agency": "Georgia Department of Corrections (GDC)", "street_address": "19 Response\n\n\n\n Federal Bonding Program\n\n\n\n Find an Offender\n\n\n\n Georgia Release Card Information\n\n\n\n Incarcerated Veterans\n\n\n\n Performance Incentive Credit Program\n\n\n\n St", "city": "Th Street\nLakeland", "zip_code": "31635", "phone": "(229) 482-8241", "description": "An official website of the State of Georgia.\n\n            How you know", "capacity": null, "security_level": null }, "geometry": { "type": "Point", "coordinates": [ -83.06143, 31.033714 ] } },
{ "type": "Feature", "properties": { "name": "Paulding", "latitude": 33.949798, "longitude": -84.814711, "entity_id": 3966, "facility_url": "https://gdc.georgia.gov/locations/paulding", "state": "GA", "agency": "Georgia Department of Corrections (GDC)", "street_address": "19 Response\n\n\n\n Federal Bonding Program\n\n\n\n Find an Offender\n\n\n\n Georgia Release Card Information\n\n\n\n Incarcerated Veterans\n\n\n\n Performance Incentive Credit Program\n\n\n\n St", "city": "North Industrial Boulevard\nDallas", "zip_code": "30132", "phone": "(770) 443-7807", "description": "An official website of the State of Georgia.\n\n            How you know", "capacity": 260.0, "security_level": null }, "geometry": { "type": "Point", "coordinates": [ -84.814711, 33.949798 ] } },
{ "type": "Feature", "properties": { "name": "Phillips State Prison", "latitude": 34.092044, "longitude": -83.909925, "entity_id": 3981, "facility_url": "https://gdc.georgia.gov/locations/phillips-state-prison", "state": "GA", "agency": "Georgia Department of Corrections (GDC)", "street_address": "19 Response\n\n\n\n Federal Bonding Program\n\n\n\n Find an Offender\n\n\n\n Georgia Release Card Information\n\n\n\n Incarcerated Veterans\n\n\n\n Performance Incentive Credit Program\n\n\n\n St", "city": "West Rock Quarry Road\nBuford", "zip_code": "30519", "phone": "(770) 932-4500", "description": "An official website of the State of Georgia.\n\n            How you know", "capacity": 918.0, "security_level": null }, "geometry": { "type": "Point", "coordinates": [ -83.909925, 34.092044 ] } },
{ "type": "Feature", "properties": { "name": "Phillips Transitional Center", "latitude": 34.092044, "longitude": -83.909925, "entity_id": 3986, "facility_url": "https://gdc.georgia.gov/locations/phillips-transitional-center", "state": "GA", "agency": "Georgia Department of Corrections (GDC)", "street_address": "19 Response\n\n\n\n Federal Bonding Program\n\n\n\n Find an Offender\n\n\n\n Georgia Release Card Information\n\n\n\n Incarcerated Veterans\n\n\n\n Performance Incentive Credit Program\n\n\n\n St", "city": "West Rock Quarry Road\nBuford", "zip_code": "30519", "phone": "(770) 932-4671", "description": "An official website of the State of Georgia.\n\n            How you know", "capacity": 204.0, "security_level": "Minimum" }, "geometry": { "type": "Point", "coordinates": [ -83.909925, 34.092044 ] } },
{ "type": "Feature", "properties": { "name": "Pulaski State Prison", "latitude": 32.311398, "longitude": -83.456936, "entity_id": 4016, "facility_url": "https://gdc.georgia.gov/locations/pulaski-state-prison", "state": "GA", "agency": "Georgia Department of Corrections (GDC)", "street_address": "19 Response\n\n\n\n Federal Bonding Program\n\n\n\n Find an Offender\n\n\n\n Georgia Release Card Information\n\n\n\n Incarcerated Veterans\n\n\n\n Performance Incentive Credit Program\n\n\n\n St", "city": "Upper River Road\nHawkinsville", "zip_code": "31036", "phone": "(478) 783-6000", "description": "An official website of the State of Georgia.\n\n            How you know", "capacity": 1223.0, "security_level": "Medium" }, "geometry": { "type": "Point", "coordinates": [ -83.456936, 32.311398 ] } },
{ "type": "Feature", "properties": { "name": "Riverbend Correctional Facility", "latitude": 33.027591, "longitude": -83.219062, "entity_id": 4041, "facility_url": "https://gdc.georgia.gov/locations/riverbend-correctional-facility", "state": "GA", "agency": "Georgia Department of Corrections (GDC)", "street_address": "19 Response\n\n\n\n Federal Bonding Program\n\n\n\n Find an Offender\n\n\n\n Georgia Release Card Information\n\n\n\n Incarcerated Veterans\n\n\n\n Performance Incentive Credit Program\n\n\n\n St", "city": "Laying Farm Rd\nMilledgeville", "zip_code": "31061", "phone": "(478) 414-2300", "description": "An official website of the State of Georgia.\n\n            How you know", "capacity": 1588.0, "security_level": "Medium" }, "geometry": { "type": "Point", "coordinates": [ -83.219062, 33.027591 ] } },
{ "type": "Feature", "properties": { "name": "Rogers State Prison", "latitude": 32.001702, "longitude": -82.179531, "entity_id": 4051, "facility_url": "https://gdc.georgia.gov/locations/rogers-state-prison", "state": "GA", "agency": "Georgia Department of Corrections (GDC)", "street_address": "19 Response\n\n\n\n Federal Bonding Program\n\n\n\n Find an Offender\n\n\n\n Georgia Release Card Information\n\n\n\n Incarcerated Veterans\n\n\n\n Performance Incentive Credit Program\n\n\n\n St", "city": "Reidsville", "zip_code": "30453", "phone": "(912) 557-7771", "description": "An official website of the State of Georgia.\n\n            How you know", "capacity": 1391.0, "security_level": "Medium" }, "geometry": { "type": "Point", "coordinates": [ -82.179531, 32.001702 ] } },
{ "type": "Feature", "properties": { "name": "Rutledge State Prison", "latitude": 32.496012, "longitude": -84.866321, "entity_id": 4056, "facility_url": "https://gdc.georgia.gov/locations/rutledge-state-prison", "state": "GA", "agency": "Georgia Department of Corrections (GDC)", "street_address": "19 Response\n\n\n\n Federal Bonding Program\n\n\n\n Find an Offender\n\n\n\n Georgia Release Card Information\n\n\n\n Incarcerated Veterans\n\n\n\n Performance Incentive Credit Program\n\n\n\n St", "city": "Manor Road\nColumbus", "zip_code": "31907", "phone": "(706) 568-2340", "description": "An official website of the State of Georgia.\n\n            How you know", "capacity": 640.0, "security_level": "Medium" }, "geometry": { "type": "Point", "coordinates": [ -84.866321, 32.496012 ] } },
{ "type": "Feature", "properties": { "name": "Smith State Prison", "latitude": 31.936592, "longitude": -81.92845, "entity_id": 4081, "facility_url": "https://gdc.georgia.gov/locations/smith-state-prison", "state": "GA", "agency": "Georgia Department of Corrections (GDC)", "street_address": "19 Response\n\n\n\n Federal Bonding Program\n\n\n\n Find an Offender\n\n\n\n Georgia Release Card Information\n\n\n\n Incarcerated Veterans\n\n\n\n Performance Incentive Credit Program\n\n\n\n St", "city": "North\nGlennville", "zip_code": "30427", "phone": "(912) 654-5000", "description": "An official website of the State of Georgia.\n\n            How you know", "capacity": 1526.0, "security_level": "Close" }, "geometry": { "type": "Point", "coordinates": [ -81.92845, 31.936592 ] } },
{ "type": "Feature", "properties": { "name": "Smith Transitional Center", "latitude": 32.161281, "longitude": -81.90402, "entity_id": 4086, "facility_url": "https://gdc.georgia.gov/locations/smith-transitional-center", "state": "GA", "agency": "Georgia Department of Corrections (GDC)", "street_address": "19 Response\n\n\n\n Federal Bonding Program\n\n\n\n Find an Offender\n\n\n\n Georgia Release Card Information\n\n\n\n Incarcerated Veterans\n\n\n\n Performance Incentive Credit Program\n\n\n\n St", "city": "North\nClaxton", "zip_code": "30417", "phone": "(912) 739-1911", "description": "An official website of the State of Georgia.\n\n            How you know", "capacity": 213.0, "security_level": "Minimum" }, "geometry": { "type": "Point", "coordinates": [ -81.90402, 32.161281 ] } },
{ "type": "Feature", "properties": { "name": "Special Management Unit", "latitude": 33.220645, "longitude": -84.061176, "entity_id": 4101, "facility_url": "https://gdc.georgia.gov/locations/special-management-unit", "state": "GA", "agency": "Georgia Department of Corrections (GDC)", "street_address": "19 Response\n\n\n\n Federal Bonding Program\n\n\n\n Find an Offender\n\n\n\n Georgia Release Card Information\n\n\n\n Incarcerated Veterans\n\n\n\n Performance Incentive Credit Program\n\n\n\n St", "city": "West\nJackson", "zip_code": "30233", "phone": "(770) 504-7610", "description": "An official website of the State of Georgia.\n\n            How you know", "capacity": 192.0, "security_level": "Close" }, "geometry": { "type": "Point", "coordinates": [ -84.061176, 33.220645 ] } },
{ "type": "Feature", "properties": { "name": "Telfair State Prison", "latitude": 32.085952, "longitude": -82.909558, "entity_id": 4141, "facility_url": "https://gdc.georgia.gov/locations/telfair-state-prison", "state": "GA", "agency": "Georgia Department of Corrections (GDC)", "street_address": "19 Response\n\n\n\n Federal Bonding Program\n\n\n\n Find an Offender\n\n\n\n Georgia Release Card Information\n\n\n\n Incarcerated Veterans\n\n\n\n Performance Incentive Credit Program\n\n\n\n St", "city": "Longbridge Road\nHelena", "zip_code": "31037", "phone": "(229) 868-7721", "description": "An official website of the State of Georgia.\n\n            How you know", "capacity": 1400.0, "security_level": "Close" }, "geometry": { "type": "Point", "coordinates": [ -82.909558, 32.085952 ] } },
{ "type": "Feature", "properties": { "name": "Treutlen Detention Center", "latitude": 32.362308, "longitude": -82.601824, "entity_id": 4176, "facility_url": "https://gdc.georgia.gov/locations/treutlen-detention-center", "state": "GA", "agency": "Georgia Department of Corrections (GDC)", "street_address": "19 Response\n\n\n\n Federal Bonding Program\n\n\n\n Find an Offender\n\n\n\n Georgia Release Card Information\n\n\n\n Incarcerated Veterans\n\n\n\n Performance Incentive Credit Program\n\n\n\n St", "city": "Cascade Circle\nSoperton", "zip_code": "30457", "phone": "(912) 529-6760", "description": "An official website of the State of Georgia.\n\n            How you know", "capacity": 7.0, "security_level": "Medium" }, "geometry": { "type": "Point", "coordinates": [ -82.601824, 32.362308 ] } },
{ "type": "Feature", "properties": { "name": "RSAT", "latitude": 31.662191, "longitude": -83.633596, "entity_id": 4186, "facility_url": "https://gdc.georgia.gov/locations/rsat", "state": "GA", "agency": "Georgia Department of Corrections (GDC)", "street_address": "19 Response\n\n\n\n Federal Bonding Program\n\n\n\n Find an Offender\n\n\n\n Georgia Release Card Information\n\n\n\n Incarcerated Veterans\n\n\n\n Performance Incentive Credit Program\n\n\n\n St", "city": "South Railroad Ave\nSycamore", "zip_code": "31790", "phone": "(229) 567-4301", "description": "An official website of the State of Georgia.\n\n            How you know", "capacity": 232.0, "security_level": "Medium" }, "geometry": { "type": "Point", "coordinates": [ -83.633596, 31.662191 ] } },
{ "type": "Feature", "properties": { "name": "Valdosta State Prison", "latitude": 30.858404, "longitude": -83.345542, "entity_id": 4211, "facility_url": "https://gdc.georgia.gov/locations/valdosta-state-prison", "state": "GA", "agency": "Georgia Department of Corrections (GDC)", "street_address": "19 Response\n\n\n\n Federal Bonding Program\n\n\n\n Find an Offender\n\n\n\n Georgia Release Card Information\n\n\n\n Incarcerated Veterans\n\n\n\n Performance Incentive Credit Program\n\n\n\n St", "city": "Valtech Road\nValdosta", "zip_code": "31601", "phone": "(229) 333-7955", "description": "An official website of the State of Georgia.\n\n            How you know", "capacity": 1312.0, "security_level": "Close" }, "geometry": { "type": "Point", "coordinates": [ -83.345542, 30.858404 ] } },
{ "type": "Feature", "properties": { "name": "Valdosta Transitional Center", "latitude": 30.805687, "longitude": -83.267415, "entity_id": 4216, "facility_url": "https://gdc.georgia.gov/locations/valdosta-transitional-center", "state": "GA", "agency": "Georgia Department of Corrections (GDC)", "street_address": "19 Response\n\n\n\n Federal Bonding Program\n\n\n\n Find an Offender\n\n\n\n Georgia Release Card Information\n\n\n\n Incarcerated Veterans\n\n\n\n Performance Incentive Credit Program\n\n\n\n St", "city": "Valdosta", "zip_code": "31601", "phone": "(229) 333-7900", "description": "An official website of the State of Georgia.\n\n            How you know", "capacity": 1312.0, "security_level": "Close" }, "geometry": { "type": "Point", "coordinates": [ -83.267415, 30.805687 ] } },
{ "type": "Feature", "properties": { "name": "Walker State Prison", "latitude": 34.810693, "longitude": -85.260888, "entity_id": 4226, "facility_url": "https://gdc.georgia.gov/locations/walker-state-prison", "state": "GA", "agency": "Georgia Department of Corrections (GDC)", "street_address": "19 Response\n\n\n\n Federal Bonding Program\n\n\n\n Find an Offender\n\n\n\n Georgia Release Card Information\n\n\n\n Incarcerated Veterans\n\n\n\n Performance Incentive Credit Program\n\n\n\n St", "city": "Kevin Lane\nRock Spring", "zip_code": "30739", "phone": "(706) 764-3600", "description": "An official website of the State of Georgia.\n\n            How you know", "capacity": 444.0, "security_level": "Medium" }, "geometry": { "type": "Point", "coordinates": [ -85.260888, 34.810693 ] } },
{ "type": "Feature", "properties": { "name": "Ware State Prison", "latitude": 31.254953, "longitude": -82.388158, "entity_id": 4241, "facility_url": "https://gdc.georgia.gov/locations/ware-state-prison", "state": "GA", "agency": "Georgia Department of Corrections (GDC)", "street_address": "19 Response\n\n\n\n Federal Bonding Program\n\n\n\n Find an Offender\n\n\n\n Georgia Release Card Information\n\n\n\n Incarcerated Veterans\n\n\n\n Performance Incentive Credit Program\n\n\n\n St", "city": "Harris Road\nWaycross", "zip_code": "31503", "phone": "(912) 285-6402", "description": "An official website of the State of Georgia.\n\n            How you know", "capacity": 1546.0, "security_level": "Close" }, "geometry": { "type": "Point", "coordinates": [ -82.388158, 31.254953 ] } },
{ "type": "Feature", "properties": { "name": "Washington State Prison", "latitude": 32.986341, "longitude": -82.598877, "entity_id": 4251, "facility_url": "https://gdc.georgia.gov/locations/washington-state-prison", "state": "GA", "agency": "Georgia Department of Corrections (GDC)", "street_address": "19 Response\n\n\n\n Federal Bonding Program\n\n\n\n Find an Offender\n\n\n\n Georgia Release Card Information\n\n\n\n Incarcerated Veterans\n\n\n\n Performance Incentive Credit Program\n\n\n\n St", "city": "East\nDavisboro", "zip_code": "31018", "phone": "(478) 348-5814", "description": "An official website of the State of Georgia.\n\n            How you know", "capacity": 1548.0, "security_level": "Medium" }, "geometry": { "type": "Point", "coordinates": [ -82.598877, 32.986341 ] } },
{ "type": "Feature", "properties": { "name": "West Central Integrated Treatment Facility", "latitude": 33.116097, "longitude": -84.360366, "entity_id": 4261, "facility_url": "https://gdc.georgia.gov/locations/west-central-integrated-treatment-facility", "state": "GA", "agency": "Georgia Department of Corrections (GDC)", "street_address": "19 Response\n\n\n\n Federal Bonding Program\n\n\n\n Find an Offender\n\n\n\n Georgia Release Card Information\n\n\n\n Incarcerated Veterans\n\n\n\n Performance Incentive Credit Program\n\n\n\n St", "city": "County Farm Road\nZebulon", "zip_code": "30295", "phone": "(770) 567-0531", "description": "An official website of the State of Georgia.\n\n            How you know", "capacity": 193.0, "security_level": "Medium" }, "geometry": { "type": "Point", "coordinates": [ -84.360366, 33.116097 ] } },
{ "type": "Feature", "properties": { "name": "Wheeler Correctional Institution", "latitude": 32.146696, "longitude": -82.78304, "entity_id": 4266, "facility_url": "https://gdc.georgia.gov/locations/wheeler-correctional-institution", "state": "GA", "agency": "Georgia Department of Corrections (GDC)", "street_address": "19 Response\n\n\n\n Federal Bonding Program\n\n\n\n Find an Offender\n\n\n\n Georgia Release Card Information\n\n\n\n Incarcerated Veterans\n\n\n\n Performance Incentive Credit Program\n\n\n\n St", "city": "North Broad Street\nAlamo", "zip_code": "30411", "phone": "(912) 568-1731", "description": "An official website of the State of Georgia.\n\n            How you know", "capacity": 2874.0, "security_level": "Medium" }, "geometry": { "type": "Point", "coordinates": [ -82.78304, 32.146696 ] } },
{ "type": "Feature", "properties": { "name": "Whitworth Women's Facility", "latitude": 34.312079, "longitude": -82.93835, "entity_id": 4286, "facility_url": "https://gdc.georgia.gov/locations/whitworth-womens-facility", "state": "GA", "agency": "Georgia Department of Corrections (GDC)", "street_address": "19 Response\n\n\n\n Federal Bonding Program\n\n\n\n Find an Offender\n\n\n\n Georgia Release Card Information\n\n\n\n Incarcerated Veterans\n\n\n\n Performance Incentive Credit Program\n\n\n\n St", "city": "Valley Hart Road\nHartwell", "zip_code": "30643", "phone": "(706) 856-2601", "description": "An official website of the State of Georgia.\n\n            How you know", "capacity": 442.0, "security_level": "Medium" }, "geometry": { "type": "Point", "coordinates": [ -82.93835, 34.312079 ] } },
{ "type": "Feature", "properties": { "name": "Wilcox State Prison", "latitude": 31.986138, "longitude": -83.300782, "entity_id": 4296, "facility_url": "https://gdc.georgia.gov/locations/wilcox-state-prison", "state": "GA", "agency": "Georgia Department of Corrections (GDC)", "street_address": "19 Response\n\n\n\n Federal Bonding Program\n\n\n\n Find an Offender\n\n\n\n Georgia Release Card Information\n\n\n\n Incarcerated Veterans\n\n\n\n Performance Incentive Credit Program\n\n\n\n St", "city": "South Broad Street\nAbbeville", "zip_code": "31001", "phone": "(229) 467-3000", "description": "An official website of the State of Georgia.\n\n            How you know", "capacity": 1827.0, "security_level": "Medium" }, "geometry": { "type": "Point", "coordinates": [ -83.300782, 31.986138 ] } },
{ "type": "Feature", "properties": { "name": "Womens Detention Center", "latitude": 32.161281, "longitude": -81.90402, "entity_id": 4311, "facility_url": "https://gdc.georgia.gov/locations/womens-detention-center", "state": "GA", "agency": "Georgia Department of Corrections (GDC)", "street_address": "19 Response\n\n\n\n Federal Bonding Program\n\n\n\n Find an Offender\n\n\n\n Georgia Release Card Information\n\n\n\n Incarcerated Veterans\n\n\n\n Performance Incentive Credit Program\n\n\n\n St", "city": "North\nClaxton", "zip_code": "30417", "phone": "(912) 739-0716", "description": "An official website of the State of Georgia.\n\n            How you know", "capacity": 236.0, "security_level": "minimum" }, "geometry": { "type": "Point", "coordinates": [ -81.90402, 32.161281 ] } },
{ "type": "Feature", "properties": { "name": "Forsyth HQ", "latitude": 33.035841, "longitude": -83.931832, "entity_id": 13616, "facility_url": "https://gdc.georgia.gov/locations/forsyth-hq", "state": "GA", "agency": "Georgia Department of Corrections (GDC)", "street_address": "19 Response\n\n\n\n Federal Bonding Program\n\n\n\n Find an Offender\n\n\n\n Georgia Release Card Information\n\n\n\n Incarcerated Veterans\n\n\n\n Performance Incentive Credit Program\n\n\n\n St", "city": "Patrol Road\nForsyth", "zip_code": "31029", "phone": "(404) 656-4661", "description": "An official website of the State of Georgia.\n\n            How you know", "capacity": null, "security_level": null }, "geometry": { "type": "Point", "coordinates": [ -83.931832, 33.035841 ] } },
{ "type": "Feature", "properties": { "name": "McRae Women's Facility", "latitude": 32.051096, "longitude": -82.873198, "entity_id": 14711, "facility_url": "https://gdc.georgia.gov/locations/mcrae-womens-facility", "state": "GA", "agency": "Georgia Department of Corrections (GDC)", "street_address": "19 Response\n\n\n\n Federal Bonding Program\n\n\n\n Find an Offender\n\n\n\n Georgia Release Card Information\n\n\n\n Incarcerated Veterans\n\n\n\n Performance Incentive Credit Program\n\n\n\n St", "city": "Helena", "zip_code": "31055", "phone": "(229) 212-5100", "description": "An official website of the State of Georgia.\n\n            How you know", "capacity": null, "security_level": "Close" }, "geometry": { "type": "Point", "coordinates": [ -82.873198, 32.051096 ] } },
{ "type": "Feature", "properties": { "name": "Metro Reinvestment Center", "latitude": 33.686992, "longitude": -84.335282, "entity_id": 14786, "facility_url": "https://gdc.georgia.gov/locations/metro-reinvestment-center", "state": "GA", "agency": "Georgia Department of Corrections (GDC)", "street_address": "19 Response\n\n\n\n Federal Bonding Program\n\n\n\n Find an Offender\n\n\n\n Georgia Release Card Information\n\n\n\n Incarcerated Veterans\n\n\n\n Performance Incentive Credit Program\n\n\n\n St", "city": "Constitution Rd\nAtlanta", "zip_code": "30316", "phone": "(404) 443-3373", "description": "An official website of the State of Georgia.\n\n            How you know", "capacity": null, "security_level": null }, "geometry": { "type": "Point", "coordinates": [ -84.335282, 33.686992 ] } }
]
}
