{
"type": "FeatureCollection",
"name": "florida_prisons",
"crs": { "type": "name", "properties": { "name": "urn:ogc:def:crs:OGC:1.3:CRS84" } },
"features": [
{ "type": "Feature", "properties": { "name": "Gadsden Re-Entry Center", "jurisdiction": "Florida", "agency": "Florida Department of Corrections (FDC)", "facility_url": "https://fdc.myflorida.com/institutions/institutions-list/144", "street_address": "630 Opportunity Lane", "city": "Havana", "state": "FL", "zip_code": "32333", "county": "Gadsden", "office": "Region 1", "latitude": 30.5467341, "longitude": -84.4956706, "warden": "Keisha Jones", "capacity": 432.0, "gender": "Male", "phone": "(850) 539-2440", "fax": "(850) 539-2768", "chaplain_phone": "(850) 539-2491", "warden_email": "keisha.jones@fdc.myflorida.com", "general_email": "GadsdenRE.WardenOffice@fdc.myflorida.com", "contact_name": "Takiya Moore", "recruiter_email": "Takiya.Moore@fdc.myflorida.com", "contact_phone": "(850) 539-2460", "hours": "9:00 a.m. - 3:00 p.m. EST", "programs": "Academic: 100- Hour Transition Program; Academic: Adult Basic Education; Academic: GED Testing; Academic: General Education Development (GED) Preparation; Academic: Literacy Program; Vocational: Electrical; Vocational: Food Service Trainee Program/ServSafe; Vocational: HVAC; Betterment: Gavel Club; Betterment: Living in Balance; Betterment: Men's Work; Betterment: Thinking for a Change; Betterment: Victim Impact; Betterment: Why Try; Substance Use: Alumni Support Group; Substance Use: Intensive Outpatient; Substance Use: Outpatient Program; Substance Use: Readiness Group; Substance Use: Therapeutic Community; Re-Entry: 24/7 Dads; Re-Entry: ARES Grant Program; Re-Entry: Florida Hires; Re-Entry: Mentor Program; Chaplaincy: Baptism; Chaplaincy: Celebrate Recovery; Chaplaincy: Chapel Library; Chaplaincy: Communion; Chaplaincy: Faith Based Studies; Chaplaincy: Meditation Classes; Chaplaincy: Mentoring; Chaplaincy: Non-Denomination Service; Chaplaincy: Prison Fellowship Academy; Chaplaincy: Religious Diets (RPD); Chaplaincy: Special Events" }, "geometry": { "type": "Point", "coordinates": [ -84.4956706, 30.5467341 ] } },
{ "type": "Feature", "properties": { "name": "Reception and Medical Center", "jurisdiction": "Florida", "agency": "Florida Department of Corrections (FDC)", "facility_url": "https://fdc.myflorida.com/institutions/institutions-list/209", "street_address": "7765 S CR 231 Lake", "city": "Butler", "state": "FL", "zip_code": "32054-0628", "county": "Union", "office": "Region 2", "latitude": 29.9899014, "longitude": -82.3594291, "warden": "Travis Lamb", "capacity": null, "gender": "Male", "phone": "(386) 496-6000", "fax": "(386) 496-3287", "chaplain_phone": "(386) 496-7010", "warden_email": "Travis.Lamb@fdc.myflorida.com", "general_email": "RMC.WardenOffice@fdc.myflorida.com", "contact_name": "Heather Liston", "recruiter_email": "Heather.Liston@fdc.myflorida.com", "contact_phone": "(386) 496-6195", "hours": "9:00 a.m. - 3:00 p.m. EST", "programs": "Academic: Adult Basic Education; Academic: General Educational Development (GED); Academic: Special Education Screening (Child Find); Chaplaincy: Religious Education; Chaplaincy: Worship Services" }, "geometry": { "type": "Point", "coordinates": [ -82.3594291, 29.9899014 ] } },
{ "type": "Feature", "properties": { "name": "New River Correctional Institution", "jurisdiction": "Florida", "agency": "Florida Department of Corrections (FDC)", "facility_url": "https://fdc.myflorida.com/institutions/institutions-list/210", "street_address": "8000 NW 80th Place", "city": "Raiford", "state": "FL", "zip_code": "32083", "county": "Bradford", "office": "Region 2", "latitude": 30.0606861, "longitude": -82.1782439, "warden": "", "capacity": null, "gender": "Male", "phone": "", "fax": "", "chaplain_phone": "", "warden_email": "", "general_email": "", "contact_name": "", "recruiter_email": "", "contact_phone": "", "hours": "", "programs": "Academic: Adult Basic Education; Academic: Continuing Education for Close Management Program; Academic: General Educational Development (GED); Academic: Volunteer Student; Chaplaincy: Alcoholics Anonymous; Chaplaincy: Chapel Library Program; Chaplaincy: Faith and Character Dorm Program; Chaplaincy: Holy Day Observation; Chaplaincy: Personal Growth Programs; Chaplaincy: Religious TV Reception; Chaplaincy: Religious Education; Chaplaincy: Special Events; Chaplaincy: Volunteer Program; Chaplaincy: Worship Services" }, "geometry": { "type": "Point", "coordinates": [ -82.1782439, 30.0606861 ] } },
{ "type": "Feature", "properties": { "name": "South Bay Correctional Facility", "jurisdiction": "Florida", "agency": "Florida Department of Corrections (FDC)", "facility_url": "https://fdc.myflorida.com/institutions/institutions-list/405", "street_address": "600 U.S. Highway 27 South South", "city": "Bay", "state": "FL", "zip_code": "33493-2233", "county": "Palm Beach", "office": "Region 4", "latitude": 26.6575454, "longitude": -80.7183921, "warden": "Shay Hatcher", "capacity": null, "gender": "Male", "phone": "(561) 992-9505", "fax": "(561) 992-4091", "chaplain_phone": "(561) 992-9505", "warden_email": "shay.hatcher@geogroup.com", "general_email": "southbaycf@geogroup.com", "contact_name": "", "recruiter_email": "", "contact_phone": "", "hours": "9:00 a.m. - 3:00 p.m. EST", "programs": "Academic: Adult Basic Education; Academic: General Educational Development (GED); Academic: Huntington Jr. College; Academic: Mandatory Literacy; Academic: Pre-GED; Vocational: Carpentry; Vocational: Culinary Arts; Vocational: Environmental Services; Vocational: Hospitality and Tourism; Vocational: Logistics; Vocational: Nursery Management; Vocational: Virtual Welding Technology" }, "geometry": { "type": "Point", "coordinates": [ -80.7183921, 26.6575454 ] } },
{ "type": "Feature", "properties": { "name": "Hernando Correctional Institution", "jurisdiction": "Florida", "agency": "Florida Department of Corrections (FDC)", "facility_url": "https://fdc.myflorida.com/institutions/institutions-list/336", "street_address": "16415 Spring Hill Drive", "city": "Brooksville", "state": "FL", "zip_code": "34604-8167", "county": "Hernando", "office": "Region 3", "latitude": 28.483452, "longitude": -82.4542886, "warden": "Tamera Poynter", "capacity": 431.0, "gender": "Male", "phone": "(352) 754-6715", "fax": "(352) 797-5794", "chaplain_phone": "(352) 754-6715", "warden_email": "Tamera.Poynter@fdc.myflorida.com", "general_email": "HernandoCI.WardenOffice@fdc.myflorida.com", "contact_name": "Jesse Costantino", "recruiter_email": "Jesse.Costantino@fdc.myflorida.com", "contact_phone": "(352) 754-2160", "hours": "9:00 a.m. - 3:00 p.m. EST", "programs": "Academic: Adult Basic Education; Academic: General Education Development (GED); Vocational: Advanced Landscaping; Vocational: Heavy Equipment Operator; Re-Entry: AIR - Aiding in Re-entry; Re-Entry: Compass 180 Program; Re-Entry: Entrepreneurship & Small Business Class; Re-Entry: Florida Ready to Work; Re-Entry: Food Service Safe Serv Certification; Re-Entry: Hunter Irrigation Class; Re-Entry: Job Seeking Resources; Re-Entry: Logistics Class; Re-Entry: Pre-Release Inmate Simulator; Re-Entry: Re-Entry Seminars; Chaplaincy: Anger Management; Chaplaincy: Bible Studies; Chaplaincy: Celebrate Recovery; Chaplaincy: Chapel Library; Chaplaincy: Kairos; Chaplaincy: Mentoring; Chaplaincy: Religious Education; Chaplaincy: Special Events Seminars; Chaplaincy: Worship Services" }, "geometry": { "type": "Point", "coordinates": [ -82.4542886, 28.483452 ] } },
{ "type": "Feature", "properties": { "name": "Lowell Annex", "jurisdiction": "Florida", "agency": "Florida Department of Corrections (FDC)", "facility_url": "https://fdc.myflorida.com/institutions/institutions-list/367", "street_address": "11120 NW Gainesville Rd.", "city": "Ocala", "state": "FL", "zip_code": "34482-1479", "county": "Marion", "office": "Region 3", "latitude": 29.3111178, "longitude": -82.1983856, "warden": "Shellie Baker", "capacity": null, "gender": "Female", "phone": "(352) 690-8900", "fax": "(352) 401-5331", "chaplain_phone": "(352) 690-8760", "warden_email": "shellie.baker@fdc.myflorida.com", "general_email": "LowellCI.WardenOffice@fdc.myflorida.com", "contact_name": "Jessica Chapman", "recruiter_email": "Jessica.Chapman@fdc.myflorida.com", "contact_phone": "(352) 690-8676", "hours": "9:00 a.m. - 3:00 p.m. EST", "programs": "Academic: Adult Basic Education (Open Population and Close Management); Academic: Ashland University College Program; Academic: General Educational Development (GED) (Open Population and Close Management); Academic: Special Education Services (Open Population and Close Management); Academic: Title I Services; Academic: Volunteer Literacy Program; Vocational: TREMCO; Chaplaincy: Chapel Library Program; Chaplaincy: Religious Education; Chaplaincy: Worship Services" }, "geometry": { "type": "Point", "coordinates": [ -82.1983856, 29.3111178 ] } },
{ "type": "Feature", "properties": { "name": "Central Florida Reception Center, South Unit", "jurisdiction": "Florida", "agency": "Florida Department of Corrections (FDC)", "facility_url": "https://fdc.myflorida.com/institutions/institutions-list/323", "street_address": "7000 H C Kelley Rd.", "city": "Orlando", "state": "FL", "zip_code": "32831-2518", "county": "Orange", "office": "Region 3", "latitude": 28.4633686, "longitude": -81.1540029, "warden": "Jess Baldridge", "capacity": 150.0, "gender": "Male", "phone": "(407) 207-7777", "fax": "(407) 249-6570", "chaplain_phone": "(407) 208-8284", "warden_email": "jess.baldridge@fdc.myflorida.com", "general_email": "CFRC.WardenOffice@fdc.myflorida.com", "contact_name": "Edward Vasquez", "recruiter_email": "Edward.Vasquez@fdc.myflorida.com", "contact_phone": "(407) 208-8174", "hours": "9:00 a.m. - 3:00 p.m. EST", "programs": "Academic: UCF - Creative Writing, English 101, Science, Poetry, Art, American Religion; Chaplaincy: Chapel Library Program; Chaplaincy: Religious Education; Chaplaincy: Spiritual Counseling; Chaplaincy: Worship Services" }, "geometry": { "type": "Point", "coordinates": [ -81.1540029, 28.4633686 ] } },
{ "type": "Feature", "properties": { "name": "Northwest Florida Reception Center Annex", "jurisdiction": "Florida", "agency": "Florida Department of Corrections (FDC)", "facility_url": "https://fdc.myflorida.com/institutions/institutions-list/125", "street_address": "4455 Sam Mitchell Drive", "city": "Chipley", "state": "FL", "zip_code": "32428-3597", "county": "Washington", "office": "Region 1", "latitude": 30.516998, "longitude": -85.6596411, "warden": "Scott Duvall", "capacity": null, "gender": "Male", "phone": "(850) 773-6100", "fax": "(850) 773-6252", "chaplain_phone": "(850) 773-6183", "warden_email": "scott.duvall@fdc.myflorida.com", "general_email": "NWFRC.WardenOffice@fdc.myflorida.com", "contact_name": "Tiffany Haire", "recruiter_email": "Tiffany.Haire@fdc.myflorida.com", "contact_phone": "(850) 773-0315", "hours": "8:00 a.m. - 2:00 p.m. CST", "programs": "Academic: Adult Basic Education; Academic: General Educational Development (GED); Academic: Special Education Screening (Child Find); Academic: Voluntary Literacy Program; Chaplaincy: Celebrate Recovery Program; Chaplaincy: Chapel Library Program; Chaplaincy: Discipleship; Chaplaincy: Experiencing God; Chaplaincy: Holy Day Observations; Chaplaincy: Inmate Transitional Assistance; Chaplaincy: Men of Honor; Chaplaincy: Most Excellent Way; Chaplaincy: Personal Growth Programs; Chaplaincy: Praise Band; Chaplaincy: Purpose Driven Life; Chaplaincy: Religious Consultations; Chaplaincy: Religious Holy Day Observances; Chaplaincy: Religious Studies; Chaplaincy: Volunteer Program; Chaplaincy: Worship Services" }, "geometry": { "type": "Point", "coordinates": [ -85.6596411, 30.516998 ] } },
{ "type": "Feature", "properties": { "name": "Lake Correctional Institution", "jurisdiction": "Florida", "agency": "Florida Department of Corrections (FDC)", "facility_url": "https://fdc.myflorida.com/institutions/institutions-list/312", "street_address": "19225 U.S. Highway 27", "city": "Clermont", "state": "FL", "zip_code": "34715-9025", "county": "Lake", "office": "Region 3", "latitude": 28.6214001, "longitude": -81.7660126, "warden": "David Colon", "capacity": 570.0, "gender": "Male", "phone": "(352) 394-6146", "fax": "(352) 394-3504", "chaplain_phone": "(352) 394-6146", "warden_email": "david.colon@fdc.myflorida.com", "general_email": "LakeCI.WardenOffice@fdc.myflorida.com", "contact_name": "Margaret Chavez", "recruiter_email": "Margaret.Chavez@fdc.myflorida.com", "contact_phone": "(352) 989-9217", "hours": "9:00 a.m. - 3:00 p.m. EST", "programs": "Academic: Adult Basic Education; Academic: Correspondence Courses; Academic: General Educational Development (GED); Academic: Special Education Services; Academic: Tutoring; Chaplaincy: Bible Study; Chaplaincy: Buddhist Services; Chaplaincy: Celebrate Recovery; Chaplaincy: Catholic Services; Chaplaincy: Chapel Library; Chaplaincy: Christian Services; Chaplaincy: Creative Art; Chaplaincy: Creative Writing; Chaplaincy: F.I.T.; Chaplaincy: Hebrew Israelites; Chaplaincy: Inside/Out Dad's; Chaplaincy: Islamic Services; Chaplaincy: Jehovah's Witness; Chaplaincy: Jewish Services; Chaplaincy: Journey to Maturity; Chaplaincy: Kairos Weekends; Chaplaincy: Native American Services; Chaplaincy: Praise Team; Chaplaincy: Religious Band; Chaplaincy: Religious Education; Chaplaincy: Wiccan Services; Chaplaincy: Worship Services; Chaplaincy: Xodus" }, "geometry": { "type": "Point", "coordinates": [ -81.7660126, 28.6214001 ] } },
{ "type": "Feature", "properties": { "name": "Madison Correctional Institution", "jurisdiction": "Florida", "agency": "Florida Department of Corrections (FDC)", "facility_url": "https://fdc.myflorida.com/institutions/institutions-list/216", "street_address": "382 Southwest MCI Way", "city": "Madison", "state": "FL", "zip_code": "32340", "county": "Madison", "office": "Region 2", "latitude": 30.4428643, "longitude": -83.4211706, "warden": "Amelia Hill", "capacity": null, "gender": "Male", "phone": "(850) 973-5300", "fax": "(850) 973-5339", "chaplain_phone": "(850) 973-5506", "warden_email": "Amelia.hill@fdc.myflorida.com", "general_email": "MadisonCI.WardenOffice@fdc.myflorida.com", "contact_name": "Cynethia Roundtree", "recruiter_email": "Cynethia.Roundtree@fdc.myflorida.com", "contact_phone": "(850) 973-5555", "hours": "9:00 a.m. - 3:00 p.m. EST", "programs": "Academic: Adult Basic Education; Academic: ESL (English as a Second Language); Academic: General Education Diploma (GED); Academic: Mavis Beacon Typing Program; Academic: PRIDE GED Academy Program; Academic: Volunteer Literacy Program; Vocational: Culinary Arts; Chaplaincy: Azalea City Ministries; Chaplaincy: Beginners Bible Study; Chaplaincy: Buddhist Services; Chaplaincy: Catholic Services & Study; Chaplaincy: Celebrate Life; Chaplaincy: Celebrate Recovery; Chaplaincy: Chapel Choir Musical Selections; Chaplaincy: Chapel Library Program; Chaplaincy: Ernest Setzler Ministries; Chaplaincy: Gavel Club; Chaplaincy: God Trials; Chaplaincy: Hebrew Israelite Services; Chaplaincy: Jehovah Witness Services; Chaplaincy: Jewish Services; Chaplaincy: Kairos Weekends & Reunion; Chaplaincy: Lord and Turner Ministries; Chaplaincy: Matthew 25 Prison Ministries; Chaplaincy: Messianic Jewish Service; Chaplaincy: Mormon Service; Chaplaincy: Muslim Services & Jumah Prayer; Chaplaincy: Night-time Religious Education & Worship; Chaplaincy: Peace Makers; Chaplaincy: Pentecostal Tabernacle; Chaplaincy: Prayer Team; Chaplaincy: Prophetess Washington; Chaplaincy: Religious Education; Chaplaincy: Save a Man Ministry; Chaplaincy: Second Chances Ministry; Chaplaincy: Seventh Day Adventist Services; Chaplaincy: Spanish Services; Chaplaincy: TBN Live Satellite Feed; Chaplaincy: Through the Bible; Chaplaincy: Trinity Community Church; Chaplaincy: Wicca Service" }, "geometry": { "type": "Point", "coordinates": [ -83.4211706, 30.4428643 ] } },
{ "type": "Feature", "properties": { "name": "Hamilton Correctional Institution", "jurisdiction": "Florida", "agency": "Florida Department of Corrections (FDC)", "facility_url": "https://fdc.myflorida.com/institutions/institutions-list/215", "street_address": "10650 S.W. 46th Street", "city": "Jasper", "state": "FL", "zip_code": "32052-1360", "county": "Hamilton", "office": "Region 2", "latitude": 30.5049624, "longitude": -82.963469, "warden": "Paul Allen", "capacity": null, "gender": "Male", "phone": "(386) 792-5151", "fax": "(386) 792-5159", "chaplain_phone": "(386) 792-5875", "warden_email": "paul.allen@fdc.myflorida.com", "general_email": "HamiltonCI.WardenOffice@fdc.myflorida.com", "contact_name": "Christopher Burnham", "recruiter_email": "Christopher.Burnham@fdc.myflorida.com", "contact_phone": "(386) 792-5803", "hours": "9:00 a.m. - 3:00 p.m. EST", "programs": "Academic: Adult Basic Education; Academic: General Educational Development (GED); Academic: Special Education; Vocational: ATLO Software Learning Lab; Vocational: Entrepreneurship/Small Business; Vocational: IN2WORK; Vocational: Information Technology Applied Information; Vocational: Introduction to Construction; Vocational: Irrigation I & II; Vocational: Logistics; Vocational: NCCER Core Construction; Vocational: OSHA 10 Class; Chaplaincy: 2ndChance; Chaplaincy: A.A./N.A.; Chaplaincy: Catholic Services; Chaplaincy: Celebrate Recovery; Chaplaincy: Chapel Library Program; Chaplaincy: D.I.R.E.C.T.; Chaplaincy: Emotional Intelligence; Chaplaincy: Faith-Based Program; Chaplaincy: Hebrew Israelite Study; Chaplaincy: Jehovah's Witness Study; Chaplaincy: Jewish Service and Studies; Chaplaincy: Jumah and Taaleem (Muslim Service and Studies); Chaplaincy: Malachi Dads; Chaplaincy: MINTS - Seminary in Prison; Chaplaincy: Religious Education; Chaplaincy: Spanish Christian Service; Chaplaincy: Various Christian Services and Studies; Chaplaincy: Worship Services" }, "geometry": { "type": "Point", "coordinates": [ -82.963469, 30.5049624 ] } },
{ "type": "Feature", "properties": { "name": "Taylor Correctional Institution", "jurisdiction": "Florida", "agency": "Florida Department of Corrections (FDC)", "facility_url": "https://fdc.myflorida.com/institutions/institutions-list/218", "street_address": "8501 Hampton Springs Road", "city": "Perry", "state": "FL", "zip_code": "32348-8747", "county": "Taylor", "office": "Region 2", "latitude": 30.0392463, "longitude": -83.7132716, "warden": "Larry Keen", "capacity": null, "gender": "Male", "phone": "(850) 838-4000", "fax": "(850) 838-4024", "chaplain_phone": "(850) 838-4231", "warden_email": "LarryJR.Keen@fdc.myflorida.com", "general_email": "TaylorCI.WardenOffice@fdc.myflorida.com", "contact_name": "Jackie Livingston", "recruiter_email": "Jackie.Livingston@fdc.myflorida.com", "contact_phone": "(850) 838-8787", "hours": "9:00 a.m. - 3:00 p.m. EST", "programs": "Academic: Adult Basic Education; Academic: Basic Literacy Program; Academic: English for Speakers of Other Languages (ESOL); Academic: General Educational Development (GED); Vocational: Carpentry; Vocational: Florida Hires - Core Construction; Vocational: Plumbing Technology; Chaplaincy: Buddhist Meditation Program; Chaplaincy: Catholic Mass; Chaplaincy: Celebrate Recovery - English/Spanish; Chaplaincy: Chapel Library Program; Chaplaincy: Chapel Praise Team; Chaplaincy: Experiencing God; Chaplaincy: Family Integrity Training (FIT); Chaplaincy: Hebrew Israelite; Chaplaincy: Islamic Jumah Prayer; Chaplaincy: Jehovah Witness Studies; Chaplaincy: Jewish Studies; Chaplaincy: Messianic Studies; Chaplaincy: Protestant Worship; Chaplaincy: Religious Education; Chaplaincy: Spanish Protestant Worship; Chaplaincy: Spanish Worship Programs; Chaplaincy: Spiritual Advisor Program; Chaplaincy: Stepping Up; Chaplaincy: Worship Services" }, "geometry": { "type": "Point", "coordinates": [ -83.7132716, 30.0392463 ] } },
{ "type": "Feature", "properties": { "name": "Hamilton Correctional Institution Annex", "jurisdiction": "Florida", "agency": "Florida Department of Corrections (FDC)", "facility_url": "https://fdc.myflorida.com/institutions/institutions-list/250", "street_address": "10650 S.W. 46th Street", "city": "Jasper", "state": "FL", "zip_code": "32052-1360", "county": "Hamilton", "office": "Region 2", "latitude": 30.5049624, "longitude": -82.963469, "warden": "Paul Allen", "capacity": null, "gender": "Male", "phone": "(386) 792-5897", "fax": "(386) 792-5159", "chaplain_phone": "(386) 792-5951", "warden_email": "paul.allen@fdc.myflorida.com", "general_email": "HamiltonCI.WardenOffice@fdc.myflorida.com", "contact_name": "Christopher Burnham", "recruiter_email": "Christopher.Burnham@fdc.myflorida.com", "contact_phone": "(386) 792-5803", "hours": "9:00 a.m. - 3:00 p.m. EST", "programs": "Academic: Adult Basic Education; Academic: General Educational Development (GED); Academic: Mandatory Literacy Program; Vocational: Applied Information Technology; Chaplaincy: Chapel Library Program; Chaplaincy: Religious Education; Chaplaincy: Worship Services" }, "geometry": { "type": "Point", "coordinates": [ -82.963469, 30.5049624 ] } },
{ "type": "Feature", "properties": { "name": "Union Correctional Institution", "jurisdiction": "Florida", "agency": "Florida Department of Corrections (FDC)", "facility_url": "https://fdc.myflorida.com/institutions/institutions-list/213", "street_address": "25636 NE SR-16", "city": "Raiford", "state": "FL", "zip_code": "32083", "county": "Union", "office": "Region 2", "latitude": 30.0669137, "longitude": -82.1917556, "warden": "Barry Reddish", "capacity": null, "gender": "Male", "phone": "(386) 431-2000", "fax": "(386) 431-2016", "chaplain_phone": "(386) 431-4125", "warden_email": "barry.reddish@fdc.myflorida.com", "general_email": "UnionCI.WardenOffice@fdc.myflorida.com", "contact_name": "Candice Rossman", "recruiter_email": "Candice.Rossman@fdc.myflorida.com", "contact_phone": "(386) 431-2208", "hours": "9:00 a.m. - 3:00 p.m. EST", "programs": "Academic: Adult Basic Education (Open Population & Close Management); Academic: General Educational Development (Open Population & Close Management); Academic: Special Education Services (Close Management); Chaplaincy: Chapel Library Program; Chaplaincy: Faith and Character-Based Dormitory; Chaplaincy: Kairos Weekends; Chaplaincy: Religious Education; Chaplaincy: Trinity Broadcasting Network (TBN); Chaplaincy: Way Home Bridge Builders; Chaplaincy: Worship Services" }, "geometry": { "type": "Point", "coordinates": [ -82.1917556, 30.0669137 ] } },
{ "type": "Feature", "properties": { "name": "Taylor Correctional Institution Annex", "jurisdiction": "Florida", "agency": "Florida Department of Corrections (FDC)", "facility_url": "https://fdc.myflorida.com/institutions/institutions-list/224", "street_address": "8501 Hampton Springs Road", "city": "Perry", "state": "FL", "zip_code": "32348", "county": "Taylor", "office": "Region 2", "latitude": 30.0392463, "longitude": -83.7132716, "warden": "", "capacity": null, "gender": "Male", "phone": "", "fax": "", "chaplain_phone": "", "warden_email": "", "general_email": "", "contact_name": "", "recruiter_email": "", "contact_phone": "", "hours": "", "programs": "Academic: Adult Basic Education; Academic: Basic Literacy Program; Academic: English for Speakers of Other Languages (ESOL); Academic: General Educational Development (GED); Vocational: Carpentry; Vocational: Florida Hires - Core Construction; Vocational: Plumbing Technology; Chaplaincy: Buddhist Meditation Program; Chaplaincy: Catholic Mass; Chaplaincy: Celebrate Recovery - English; Chaplaincy: Chapel Library Program; Chaplaincy: Chapel Praise Team; Chaplaincy: Experiencing God; Chaplaincy: Family Integrity Training (FIT); Chaplaincy: Hebrew Israelite; Chaplaincy: Islamic Jumah Prayer; Chaplaincy: Jehovah Witness Studies; Chaplaincy: Jewish Studies; Chaplaincy: Messianic Studies; Chaplaincy: Protestant Worship; Chaplaincy: Religious Education; Chaplaincy: Spanish Protestant Worship; Chaplaincy: Spanish Worship Services; Chaplaincy: Spiritual Advisor Program; Chaplaincy: Stepping Up; Chaplaincy: Worship Services" }, "geometry": { "type": "Point", "coordinates": [ -83.7132716, 30.0392463 ] } },
{ "type": "Feature", "properties": { "name": "Central Florida Reception Center, East Unit", "jurisdiction": "Florida", "agency": "Florida Department of Corrections (FDC)", "facility_url": "https://fdc.myflorida.com/institutions/institutions-list/321", "street_address": "7000 H C Kelley Rd.", "city": "Orlando", "state": "FL", "zip_code": "32831-2518", "county": "Orange", "office": "Region 3", "latitude": 28.4633686, "longitude": -81.1540029, "warden": "Jess Baldridge", "capacity": null, "gender": "Male", "phone": "(407) 207-7777", "fax": "(407) 249-6570", "chaplain_phone": "(407) 208-8284", "warden_email": "jess.baldridge@fdc.myflorida.com", "general_email": "CFRC.WardenOffice@fdc.myflorida.com", "contact_name": "Edward Vasquez", "recruiter_email": "Edward.Vasquez@fdc.myflorida.com", "contact_phone": "(407) 208-8174", "hours": "9:00 a.m. - 3:00 p.m. EST", "programs": "Academic: Adult Basic Education; Academic: ATLO Programming; Academic: General Educational Development (GED); Academic: OSHA; Academic: UCF - Creative Writing, English 101, Science, Poetry, Art, American Religion; Chaplaincy: Chapel Library Program; Chaplaincy: Religious Education; Chaplaincy: Spiritual Counseling; Chaplaincy: Worship Services" }, "geometry": { "type": "Point", "coordinates": [ -81.1540029, 28.4633686 ] } },
{ "type": "Feature", "properties": { "name": "Gadsden Correctional Facility", "jurisdiction": "Florida", "agency": "Florida Department of Corrections (FDC)", "facility_url": "https://fdc.myflorida.com/institutions/institutions-list/111", "street_address": "6044 Greensboro Highway", "city": "Quincy", "state": "FL", "zip_code": "32351-9100", "county": "Gadsden", "office": "Region 1", "latitude": 30.5903538, "longitude": -84.656413, "warden": "Jerry Buscher", "capacity": null, "gender": "Female", "phone": "(850) 875-9701", "fax": "(850) 875-9710", "chaplain_phone": "(850) 875-9701", "warden_email": "Jerry.Buscher@mtctrains.com", "general_email": "", "contact_name": "", "recruiter_email": "", "contact_phone": "", "hours": "9:00 a.m. - 3:00 p.m. EST", "programs": "Academic: Adult Basic Education/GED; Academic: Literacy; Academic: Post Secondary; Academic: Tutoring; Vocational: Cosmetology with onsite Board testing by DBPR; Vocational: Culinary Arts with ServSafe testing onsite; Vocational: Facial Specialty (Esthetician) registration with the State; Vocational: Global Logistics Technology & Supply Chain; Vocational: Horticulture; Re-Entry: Compass 180; Re-Entry: Keys to Success; Re-Entry: Shaping Success for Women (12-Month In-House Program); Chaplaincy: Biblical Life Skills; Chaplaincy: Family Empowerment; Chaplaincy: Grief and Loss; Chaplaincy: Helping Women Recover; Chaplaincy: Inspired by Love; Chaplaincy: Most Excellent Way; Chaplaincy: Prison Fellowship; Chaplaincy: Purpose Driven Life; Chaplaincy: Seeking Safety" }, "geometry": { "type": "Point", "coordinates": [ -84.656413, 30.5903538 ] } },
{ "type": "Feature", "properties": { "name": "Santa Rosa Correctional Institution Annex", "jurisdiction": "Florida", "agency": "Florida Department of Corrections (FDC)", "facility_url": "https://fdc.myflorida.com/institutions/institutions-list/135", "street_address": "5850 East Milton Road", "city": "Milton", "state": "FL", "zip_code": "32583-7914", "county": "Santa Rosa", "office": "Region 1", "latitude": 30.6446934, "longitude": -86.9679234, "warden": "Ronnie Quinn", "capacity": null, "gender": "Male", "phone": "(850) 983-5800", "fax": "(850) 983-5907", "chaplain_phone": "(850) 983-4530", "warden_email": "ronnie.quinn@fdc.myflorida.com", "general_email": "SantaRosaCI.WardenOffice@fdc.myflorida.com", "contact_name": "Christy Padgett", "recruiter_email": "Christy.Padgett@fdc.myflorida.com", "contact_phone": "(850) 983-5909", "hours": "8:00 a.m. - 11:00 a.m. CST | 12:00 p.m. - 3:00 p.m. CST", "programs": "Academic: Adult Basic Education (ABE); Academic: General Educational Development (GED); Academic: Literacy; Academic: Special Education Services (Restricted Housing); Vocational: Aramark IN2WORK Program; Vocational: Beginning Farmer (partner with UF/IFAS); Vocational: Carpentry (partner with NWFSC); Vocational: Farming Finance (partner with UF/IFAS); Vocational: Florida-friendly Landscaping (partner with UF/IFAS); Vocational: Global Logistics and Warehousing; Vocational: Plumbing; Vocational: Welding (partner with NWFSC); Chaplaincy: AA; Chaplaincy: Anger Management; Chaplaincy: Bible Studies; Chaplaincy: Celebrate Recovery; Chaplaincy: Chapel Library Program; Chaplaincy: Family Integrity Program (FIT); Chaplaincy: Harvest of Life; Chaplaincy: Inmate Field Minister Ministries; Chaplaincy: Inmate Music Programs; Chaplaincy: Kairos; Chaplaincy: Mental Health Dorm Cell to Cell Ministry; Chaplaincy: Religious Education; Chaplaincy: Religious Holy Day Observance and Rituals; Chaplaincy: Religious Volunteer Activities; Chaplaincy: Spanish Religious Services; Chaplaincy: Special Religious Events; Chaplaincy: Spiritual Advisor Visits; Chaplaincy: Spiritual Crisis and Adjustment Counseling; Chaplaincy: Walk on Water (WOW); Chaplaincy: Worship Services" }, "geometry": { "type": "Point", "coordinates": [ -86.967923399999989, 30.6446934 ] } },
{ "type": "Feature", "properties": { "name": "Santa Rosa Correctional Institution", "jurisdiction": "Florida", "agency": "Florida Department of Corrections (FDC)", "facility_url": "https://fdc.myflorida.com/institutions/institutions-list/119", "street_address": "5850 East Milton Road", "city": "Milton", "state": "FL", "zip_code": "32583-7914", "county": "Santa Rosa", "office": "Region 1", "latitude": 30.6446934, "longitude": -86.9679234, "warden": "Ronnie Quinn", "capacity": null, "gender": "Male", "phone": "(850) 983-5800", "fax": "(850) 983-5907", "chaplain_phone": "(850) 983-4530", "warden_email": "ronnie.quinn@fdc.myflorida.com", "general_email": "SantaRosaCI.WardenOffice@fdc.myflorida.com", "contact_name": "Christy Padgett", "recruiter_email": "Christy.Padgett@fdc.myflorida.com", "contact_phone": "(850) 983-5909", "hours": "8:00 a.m. - 11:00 a.m. CST | 12:00 p.m. - 3:00 p.m. CST", "programs": "Academic: Adult Basic Education (Close Management & Open Population); Academic: COMPASS 180 Transition Course (Close Management & Open Population); Academic: General Educational Development (GED) (Close Management & Open Population); Academic: Special Education Services (Close Management); Academic: Volunteer Literacy Program; Academic: Reading and Writing Groups (Open Population); Vocational: Farm Worker; Vocational: Textile Repair Worker; Vocational: Work Force Readiness; Chaplaincy: Bible Studies; Chaplaincy: Chapel Library Program; Chaplaincy: CM Bible Studies; Chaplaincy: CM Bible Study Course; Chaplaincy: CM Cell Front Visitation; Chaplaincy: Harvest of Life; Chaplaincy: Houses of Healing (CM); Chaplaincy: Inmate Field Minister Ministries; Chaplaincy: Inmate Music Program; Chaplaincy: Jack Brewer Fatherhood Initiative; Chaplaincy: Kairos; Chaplaincy: Malachi Dads; Chaplaincy: Religious Education; Chaplaincy: Religious Holy Day Observance and Rituals; Chaplaincy: Religious Volunteer Activities; Chaplaincy: Spanish Religious Services; Chaplaincy: Special Religious Events; Chaplaincy: Spiritual Advisor Visits; Chaplaincy: Spiritual Crisis and Adjustment Counseling; Chaplaincy: Walk On Water (WOW); Chaplaincy: Worship Services" }, "geometry": { "type": "Point", "coordinates": [ -86.967923399999989, 30.6446934 ] } },
{ "type": "Feature", "properties": { "name": "Gulf Correctional Institution", "jurisdiction": "Florida", "agency": "Florida Department of Corrections (FDC)", "facility_url": "https://fdc.myflorida.com/institutions/institutions-list/109", "street_address": "500 Ike Steele Road", "city": "Wewahitchka", "state": "FL", "zip_code": "32465-0010", "county": "Gulf", "office": "Region 1", "latitude": 30.1715775, "longitude": -85.2555662, "warden": "Michael Pabis", "capacity": null, "gender": "Male", "phone": "(850) 639-1000", "fax": "(850) 639-1182", "chaplain_phone": "(850) 639-1475", "warden_email": "michael.pabis@fdc.myflorida.com", "general_email": "GulfCI.WardenOffice@fdc.myflorida.com", "contact_name": "Jena Rice", "recruiter_email": "Jena.Rice@fdc.myflorida.com", "contact_phone": "(850) 639-1483", "hours": "8:00 a.m. - 2:00 p.m. CST", "programs": "Academic: ABE Adult Basic Education; Academic: Compass 180 Live/Hybrid; Academic: Correspondence Course; Academic: GED General Educational Development; Academic: Literacy; Vocational: Environmental Services; Vocational: HVAC; Chaplaincy: Anger Resolution; Chaplaincy: Basic Life principles; Chaplaincy: Bondage to Freedom; Chaplaincy: Chapel Library Program; Chaplaincy: Faith-based alternative transitional program; Chaplaincy: Prison Fellowship biannual; Chaplaincy: Religious education; Chaplaincy: Storybook Program; Chaplaincy: Transition Housing Assistance; Chaplaincy: Worship services" }, "geometry": { "type": "Point", "coordinates": [ -85.2555662, 30.1715775 ] } },
{ "type": "Feature", "properties": { "name": "Florida Women's Reception Center", "jurisdiction": "Florida", "agency": "Florida Department of Corrections (FDC)", "facility_url": "https://fdc.myflorida.com/institutions/institutions-list/368", "street_address": "3700 NW 111th Place", "city": "Ocala", "state": "FL", "zip_code": "34482-1479", "county": "Marion", "office": "Region 3", "latitude": 29.3103913, "longitude": -82.1869979, "warden": "Nan Jeffcoat", "capacity": null, "gender": "Female", "phone": "(352) 840-8000", "fax": "(352) 402-6620", "chaplain_phone": "(352) 840-7958", "warden_email": "Nan.Jeffcoat@fdc.myflorida.com", "general_email": "FloridaWomen'sRC.Warden'sOffice@fdc.myflorida.com", "contact_name": "Jacalyn Mike", "recruiter_email": "Jacalyn.Mike@fdc.myflorida.com", "contact_phone": "(352) 840-7807", "hours": "9:00 a.m. - 3:00 p.m. EST", "programs": "Academic: Adult Basic Education; Academic: General Educational Development (GED); Academic: Special Education Screening (Child Find); Chaplaincy: Faith & Character Based Programs; Chaplaincy: Chapel Library; Chaplaincy: Religious Education; Chaplaincy: Worship Services" }, "geometry": { "type": "Point", "coordinates": [ -82.1869979, 29.3103913 ] } },
{ "type": "Feature", "properties": { "name": "Reception and Medical Center West Unit", "jurisdiction": "Florida", "agency": "Florida Department of Corrections (FDC)", "facility_url": "https://fdc.myflorida.com/institutions/institutions-list/208", "street_address": "7765 S CR 231 Lake", "city": "Butler", "state": "FL", "zip_code": "32054-0628", "county": "Union", "office": "Region 2", "latitude": 29.9899014, "longitude": -82.3594291, "warden": "Travis Lamb", "capacity": 891.0, "gender": "Male", "phone": "(386) 496-6000", "fax": "(386) 496-3287", "chaplain_phone": "(386) 496-7010", "warden_email": "Travis.Lamb@fdc.myflorida.com", "general_email": "RMC.WardenOffice@fdc.myflorida.com", "contact_name": "Heather Liston", "recruiter_email": "Heather.Liston@fdc.myflorida.com", "contact_phone": "(386) 496-6195", "hours": "9:00 a.m. - 3:00 p.m. EST", "programs": "Chaplaincy: Religious Education; Chaplaincy: Worship Services" }, "geometry": { "type": "Point", "coordinates": [ -82.3594291, 29.9899014 ] } },
{ "type": "Feature", "properties": { "name": "Cross City East Unit", "jurisdiction": "Florida", "agency": "Florida Department of Corrections (FDC)", "facility_url": "https://fdc.myflorida.com/institutions/institutions-list/269", "street_address": "568 N.E. 255th Street Cross", "city": "City", "state": "FL", "zip_code": "32628", "county": "Dixie", "office": "Region 2", "latitude": 29.6313397, "longitude": -83.099284, "warden": "Jeff Kennedy", "capacity": 432.0, "gender": "Male", "phone": "(352) 498-4900", "fax": "(352) 498-4333 or 4334", "chaplain_phone": "(352) 498-4793", "warden_email": "jeff.kennedy@fdc.myflorida.com", "general_email": "CrossCityCI.WardenOffice@fdc.myflorida.com", "contact_name": "Ashley Riley", "recruiter_email": "Ashley.Riley@fdc.myflorida.com", "contact_phone": "(352) 498-4756", "hours": "9:00 a.m. - 3:00 p.m. EST", "programs": "Academic: Adult Basic Education (ITA); Academic: General Educational Development (GED); Academic: Volunteer Literacy Program" }, "geometry": { "type": "Point", "coordinates": [ -83.099284, 29.6313397 ] } },
{ "type": "Feature", "properties": { "name": "Baker Correctional Institution", "jurisdiction": "Florida", "agency": "Florida Department of Corrections (FDC)", "facility_url": "https://fdc.myflorida.com/institutions/institutions-list/279", "street_address": "20706 U.S. Highway 90 West", "city": "Sanderson", "state": "FL", "zip_code": "32087-2359", "county": "Baker", "office": "Region 2", "latitude": 30.214814, "longitude": -82.372328, "warden": "", "capacity": null, "gender": "Male", "phone": "", "fax": "", "chaplain_phone": "", "warden_email": "", "general_email": "", "contact_name": "", "recruiter_email": "", "contact_phone": "", "hours": "", "programs": "" }, "geometry": { "type": "Point", "coordinates": [ -82.372328, 30.214814 ] } },
{ "type": "Feature", "properties": { "name": "Marion Correctional Institution", "jurisdiction": "Florida", "agency": "Florida Department of Corrections (FDC)", "facility_url": "https://fdc.myflorida.com/institutions/institutions-list/304", "street_address": "3269 NW 105th Street", "city": "Ocala", "state": "FL", "zip_code": "34475", "county": "Marion", "office": "Region 3", "latitude": 29.3044006, "longitude": -82.1795764, "warden": "Paul Kish", "capacity": null, "gender": "Male", "phone": "(352) 401-6400", "fax": "(352) 840-5657", "chaplain_phone": "(352) 401-6400", "warden_email": "Paul.Kish@fdc.myflorida.com", "general_email": "MarionCI.WardenOffice@fdc.myflorida.com", "contact_name": "Felix Alicea", "recruiter_email": "Felix.Alicea@fdc.myflorida.com", "contact_phone": "(352) 401-6400", "hours": "9:00 a.m. - 3:00 p.m. EST", "programs": "Academic: Adult Basic Education; Academic: Ashland University College Program; Academic: General Educational Development (GED); Academic: Mandatory Literacy Program; Academic: Special Education Services; Academic: Title I Services; Vocational: Air Conditioning, Refrigeration and Heating; Vocational: CPR/First Aid; Vocational: Electrical Wiring; Vocational: Heavy Equipment Operator (HEO); Vocational: NCCER Core Safety Course; Vocational: Polk State Logistics CLA/CLT w/OSHA 10; Vocational: Tremco Roofing Program; Chaplaincy: A.A.; Chaplaincy: Apologetics Class; Chaplaincy: Bible Studies; Chaplaincy: Chapel Library Program; Chaplaincy: Chapel Movie Saturday; Chaplaincy: Church Behind Bars; Chaplaincy: Creative Arts Team; Chaplaincy: Discipleship Class; Chaplaincy: English for Spanish Speakers; Chaplaincy: Faith and Character Based Programming; Chaplaincy: Faith Based 12-Step programs; Chaplaincy: Fatherhood Class; Chaplaincy: F.I.T. Classes; Chaplaincy: Gavel Club; Chaplaincy: Holy Day Observance; Chaplaincy: Journey to the Heart; Chaplaincy: Kairos; Chaplaincy: Lifers; Chaplaincy: MINTS - Miami International Theological Seminary; Chaplaincy: N.A.; Chaplaincy: New Path; Chaplaincy: Praise Team/Worship Band; Chaplaincy: Prison Fellowship; Chaplaincy: Religious Education; Chaplaincy: Sexual Addiction (SA); Chaplaincy: Special Events; Chaplaincy: Spiritual Advisors and Mentoring; Chaplaincy: Weekend Seminars; Chaplaincy: Worship Services; Chaplaincy: Xtreme SOULutions; Chaplaincy: Buddhist Services; Chaplaincy: Catholic Services; Chaplaincy: Christian Services; Chaplaincy: Hebrew Israelite Services; Chaplaincy: Islamic Services; Chaplaincy: Jehovah Witness Services; Chaplaincy: Latter-day Saints; Chaplaincy: Odinist Services; Chaplaincy: Jewish Services; Chaplaincy: Wiccan Services" }, "geometry": { "type": "Point", "coordinates": [ -82.179576400000016, 29.3044006 ] } },
{ "type": "Feature", "properties": { "name": "Gulf Correctional Institution Annex", "jurisdiction": "Florida", "agency": "Florida Department of Corrections (FDC)", "facility_url": "https://fdc.myflorida.com/institutions/institutions-list/150", "street_address": "699 Ike Steele Road", "city": "Wewahitchka", "state": "FL", "zip_code": "32465-0010", "county": "Gulf", "office": "Region 1", "latitude": 30.1752022, "longitude": -85.2671429, "warden": "Michael Pabis", "capacity": 720.0, "gender": "Male", "phone": "(850) 639-1000", "fax": "(850) 639-1182", "chaplain_phone": "(850) 639-1475", "warden_email": "michael.pabis@fdc.myflorida.com", "general_email": "gulfci.wardenoffice@fdc.myflorida.com", "contact_name": "Jena Rice", "recruiter_email": "jena.rice@fdc.myflorida.com", "contact_phone": "(850) 639-1483", "hours": "", "programs": "" }, "geometry": { "type": "Point", "coordinates": [ -85.2671429, 30.1752022 ] } },
{ "type": "Feature", "properties": { "name": "Blackwater River Correctional Facility", "jurisdiction": "Florida", "agency": "Florida Department of Corrections (FDC)", "facility_url": "https://fdc.myflorida.com/institutions/institutions-list/185", "street_address": "5914 Jeff Ates Road", "city": "Milton", "state": "FL", "zip_code": "32583-0000", "county": "Santa Rosa", "office": "Region 1", "latitude": 30.6455116, "longitude": -86.9517695, "warden": "Terry Dudley", "capacity": null, "gender": "Male", "phone": "(850) 983-4100", "fax": "(850) 983-4100", "chaplain_phone": "(850) 983-4100 ext. 614", "warden_email": "widudley@geogroup.com", "general_email": "", "contact_name": "", "recruiter_email": "", "contact_phone": "", "hours": "8:00 a.m. - 2:00 p.m. CST", "programs": "Academic: Pre-GED/GED; Academic: \"ABE\" Adult Basic Education; Vocational: Barbering; Vocational: Desktop publishing; Vocational: Electrical - Residential; Vocational: Environmental Services; Vocational: Global Logistics; Vocational: Technical Support Specialist; Chaplaincy: Chapel Library Programs; Chaplaincy: Special Events; Chaplaincy: Religious Education; Chaplaincy: Worship Services" }, "geometry": { "type": "Point", "coordinates": [ -86.9517695, 30.6455116 ] } },
{ "type": "Feature", "properties": { "name": "Martin Correctional Institution", "jurisdiction": "Florida", "agency": "Florida Department of Corrections (FDC)", "facility_url": "https://fdc.myflorida.com/institutions/institutions-list/430", "street_address": "1150 S.W. Allapattah Road", "city": "Indiantown", "state": "FL", "zip_code": "34956-4397", "county": "Martin", "office": "Region 4", "latitude": 27.1996473, "longitude": -80.4815905, "warden": "Jeffrey Robinson", "capacity": null, "gender": "Male", "phone": "(772) 597-3705", "fax": "(772) 597-3742", "chaplain_phone": "(772) 597-8132", "warden_email": "jeffrey.robinson@fdc.myflorida.com", "general_email": "MartinCI.WardenOffice@fdc.myflorida.com", "contact_name": "Kory Rupp", "recruiter_email": "Kory.Rupp@fdc.myflorida.com", "contact_phone": "(772) 597-8025", "hours": "9:00 a.m. - 3:00 p.m. EST", "programs": "Chaplaincy: 7 Steps Discipleship Course; Chaplaincy: Alcoholics Anonymous; Chaplaincy: Art Program; Chaplaincy: Berean Trust Bible Study; Chaplaincy: Blessings from Heaven; Chaplaincy: Catholic Mass; Chaplaincy: C. F. Core Values Study; Chaplaincy: Chapel Library; Chaplaincy: Christ Ambassadors; Chaplaincy: Christ Fellowship; Chaplaincy: Christology (Spanish); Chaplaincy: Creole Bible Study; Chaplaincy: End Times; Chaplaincy: Fishers of Men; Chaplaincy: FPM CHURCH - Florida Prison Ministry; Chaplaincy: Global Priorities; Chaplaincy: Guitar Beginners; Chaplaincy: Grace Emmanuel Tabernacle Worship; Chaplaincy: Harvest of Life; Chaplaincy: Hebrew Class; Chaplaincy: Hebrew Israelite Study; Chaplaincy: Hobe Sound; Chaplaincy: Jesus Christ Street Ministry; Chaplaincy: Jehovah’s Witness Watchtower Study; Chaplaincy: Jumu’ah Prayer; Chaplaincy: Kairos; Chaplaincy: Legion Meetings; Chaplaincy: Men of Faithfulness and Integrity; Chaplaincy: Messianic Service; Chaplaincy: Music Theory; Chaplaincy: Pennell Prayer Group; Chaplaincy: Praise Team; Chaplaincy: Prison Fellowship Academy; Chaplaincy: PSL Worship Center; Chaplaincy: Recovery Church; Chaplaincy: Removing Obstacles; Chaplaincy: Spanish Service; Chaplaincy: Taaleem; Chaplaincy: Victim Impact; Chaplaincy: Who is God" }, "geometry": { "type": "Point", "coordinates": [ -80.4815905, 27.1996473 ] } },
{ "type": "Feature", "properties": { "name": "Charlotte Correctional Institution", "jurisdiction": "Florida", "agency": "Florida Department of Corrections (FDC)", "facility_url": "https://fdc.myflorida.com/institutions/institutions-list/510", "street_address": "33123 Oil Well Road Punta", "city": "Gorda", "state": "FL", "zip_code": "33955-9701", "county": "Charlotte", "office": "Region 4", "latitude": 26.8043837, "longitude": -81.9034967, "warden": "William \"Scott\" Payne", "capacity": null, "gender": "Male", "phone": "(941) 833-8100", "fax": "(941) 575-5747", "chaplain_phone": "(941) 833-8085", "warden_email": "william.payne@fdc.myflorida.com", "general_email": "CharlotteCI.WardenOffice@fdc.myflorida.com", "contact_name": "Tammy Baker", "recruiter_email": "Tammy.Baker@fdc.myflorida.com", "contact_phone": "(941) 833-8037", "hours": "9:00 a.m. - 3:00 p.m. EST", "programs": "Academic: Adult Basic Education; Academic: Continuing Education; Academic: General Educational Development; Academic: Mandatory Literacy; Academic: Special Education Services; Academic: Title 1 Services; Vocational: CPR; Vocational: Entrepreneurship; Vocational: OSHA; Re-Entry: Compass 180 Transition Program; Re-Entry: Damascus Re-entry Program; Re-Entry: Library Services; Re-Entry: Thinking for a Change; Re-Entry: Wellness Education; Chaplaincy: Alcoholics Anonymous; Chaplaincy: Authentic Man; Chaplaincy: Catholic Bible Study; Chaplaincy: Catholic Confessions; Chaplaincy: Catholic Mass; Chaplaincy: Catholic RCIA; Chaplaincy: Christian Class; Chaplaincy: Communication and Anger; Chaplaincy: Financial Literacy; Chaplaincy: From the Inside Out; Chaplaincy: Hebrew Israelite Study; Chaplaincy: Jehovah's Witness; Chaplaincy: Kairos Reunion; Chaplaincy: Kairos Weekly Prayer & Share; Chaplaincy: McGregor Baptist; Chaplaincy: Messianic Jewish Shabbat; Chaplaincy: Messianic Torah Study; Chaplaincy: Miami International Seminary; Chaplaincy: Muslim Jummah Prayer; Chaplaincy: Muslim Taaleem Service; Chaplaincy: Orthodox Jewish Shabbat; Chaplaincy: Orthodox Jewish Studies; Chaplaincy: Outreach Ministries; Chaplaincy: Parenting from the Inside; Chaplaincy: Rock of Ages; Chaplaincy: Spanish Protestant Service; Chaplaincy: Veterans Program; Chaplaincy: Veterans Dorm" }, "geometry": { "type": "Point", "coordinates": [ -81.9034967, 26.8043837 ] } },
{ "type": "Feature", "properties": { "name": "Homestead Correctional Institution", "jurisdiction": "Florida", "agency": "Florida Department of Corrections (FDC)", "facility_url": "https://fdc.myflorida.com/institutions/institutions-list/419", "street_address": "19000 S.W. 377th Street Florida", "city": "City", "state": "FL", "zip_code": "33034-6409", "county": "Miami-Dade", "office": "Region 4", "latitude": 25.41532, "longitude": -80.497996, "warden": "Alonzo Horner", "capacity": 668.0, "gender": "Female", "phone": "(305) 242-1770", "fax": "(305) 242-2424", "chaplain_phone": "(786) 349-2112", "warden_email": "alonzo.horner@fdc.myflorida.com", "general_email": "HomesteadCI.WardenOffice@fdc.myflorida.com", "contact_name": "Quandra Strachan", "recruiter_email": "Quandra.Strachan@fdc.myflorida.com", "contact_phone": "(786) 349-2107", "hours": "9:00 a.m. - 3:00 p.m. EST", "programs": "Academic: Adult Basic Education; Academic: General Educational Development (GED); Academic: Mandatory Literacy Program; Academic: Volunteer Literacy Program; Vocational: Cosmetology; Vocational: Entrepreneurship; Chaplaincy: Chapel Library Program; Chaplaincy: Kairos Weekends; Chaplaincy: Religious Education; Chaplaincy: Rescate Ministry; Chaplaincy: Worship Services" }, "geometry": { "type": "Point", "coordinates": [ -80.497996, 25.41532 ] } },
{ "type": "Feature", "properties": { "name": "Everglades Re-Entry Center", "jurisdiction": "Florida", "agency": "Florida Department of Corrections (FDC)", "facility_url": "https://fdc.myflorida.com/institutions/institutions-list/441", "street_address": "1601 SW 187th Avenue", "city": "Miami", "state": "FL", "zip_code": "33194", "county": "Miami-Dade", "office": "Region 4", "latitude": 25.6485299, "longitude": -80.4972051, "warden": "Herman Rogers", "capacity": 432.0, "gender": "Male", "phone": "(305) 480-4400", "fax": "(305) 222-4141", "chaplain_phone": "(305) 480-4424", "warden_email": "herman.rogers@fdc.myflorida.com", "general_email": "EvergladesCI.WardenOffice@fdc.myflorida.com", "contact_name": "Djeannane Jolteus", "recruiter_email": "Djeannane.Jolteus@fdc.myflorida.com", "contact_phone": "(305) 480-4204", "hours": "9:00 a.m. - 3:00 p.m. EST", "programs": "Academic: Adult Basic Education (ABE); Academic: General Educational Development (GED); Academic: Interactive Journaling; Academic: MDC Second Chance Pell Grant Program; Vocational: ATLO; Vocational: Craft Construction; Vocational: CPR; Vocational: Electrical Program; Vocational: Entrepreneurship; Vocational: Forklift; Vocational: HVAC; Vocational: Infrastructure/Underground Utilities; Vocational: Landscape and Turf Management; Vocational: Small Appliances; Vocational: Solar Panels; Chaplaincy: Alcoholics Anonymous; Chaplaincy: Authentic Manhood Classes; Chaplaincy: Baptism; Chaplaincy: Bible Studies English; Chaplaincy: Bible Studies Spanish; Chaplaincy: Catholic Service; Chaplaincy: Celebrate Recovery; Chaplaincy: Chapel Library; Chaplaincy: Hebrew Israelite Services; Chaplaincy: Inside Out Dads; Chaplaincy: Islamic Jummah Prayer and Taaleem Study; Chaplaincy: Life Abundant; Chaplaincy: Malachi Dads; Chaplaincy: Messianic Jewish Shabbat; Chaplaincy: Narcotics Anonymous; Chaplaincy: Orthodox Jewish Shabbat and Studies; Chaplaincy: Peace Education Class; Chaplaincy: Rabbi Visits/Study; Chaplaincy: Religious Education; Chaplaincy: Worship Services English; Chaplaincy: Worship Services Spanish" }, "geometry": { "type": "Point", "coordinates": [ -80.4972051, 25.6485299 ] } },
{ "type": "Feature", "properties": { "name": "Everglades Correctional Institution", "jurisdiction": "Florida", "agency": "Florida Department of Corrections (FDC)", "facility_url": "https://fdc.myflorida.com/institutions/institutions-list/401", "street_address": "1599 S.W. 187th Avenue", "city": "Miami", "state": "FL", "zip_code": "33194", "county": "Miami-Dade", "office": "Region 4", "latitude": 25.6485353, "longitude": -80.496808, "warden": "Herman Rogers", "capacity": null, "gender": "Male", "phone": "(305) 228-2000", "fax": "(305) 228-2039", "chaplain_phone": "(305) 480-4210 / Re-Entry Center (305) 480-4400", "warden_email": "herman.rogers@fdc.myflorida.com", "general_email": "EvergladesCI.WardenOffice@fdc.myflorida.com", "contact_name": "Djeannane Jolteus", "recruiter_email": "Djeannane.Jolteus@fdc.myflorida.com", "contact_phone": "(305) 480-4204", "hours": "9:00 a.m. - 3:00 p.m. EST", "programs": "Academic: Adult Basic Education; Academic: General Educational Development (GED); Academic: Miami-Dade College 2nd Chance Program; Academic: Pre-GED; Academic: Volunteer Literacy Program; Chaplaincy: Alcoholics Anonymous; Chaplaincy: Authentic Manhood Classes; Chaplaincy: Baptism; Chaplaincy: Bible Studies (English/Spanish); Chaplaincy: Bridge Builders/Way Home; Chaplaincy: Buddhist Service; Chaplaincy: Catholic Service and Study; Chaplaincy: Celebrate Recovery; Chaplaincy: Chapel Library Program; Chaplaincy: Chess Club; Chaplaincy: Choir Program; Chaplaincy: Faith & Character Dorm; Chaplaincy: FX3 - Discipleship; Chaplaincy: God Behind Bars; Chaplaincy: Hebrew Israelite Service; Chaplaincy: House of Healing; Chaplaincy: Inside Out Dads; Chaplaincy: Islamic Jummah Prayer and Taaleem study; Chaplaincy: Jehovah Witness Service and Study; Chaplaincy: Kairos Mentors; Chaplaincy: Kairos Reunion; Chaplaincy: Kairos Weekend (English/Spanish); Chaplaincy: LDS (Mormon) Service; Chaplaincy: Life Abundant; Chaplaincy: Malachi Dads; Chaplaincy: Marriage Resolution; Chaplaincy: Messianic Jewish Shabbat; Chaplaincy: MINTS Seminary; Chaplaincy: My Second Language: Hebrew, Arabic, Creole, Spanish; Chaplaincy: Narcotics Anonymous; Chaplaincy: Orthodox Jewish Shabbat and Studies; Chaplaincy: Parenting; Chaplaincy: Peace Education Class; Chaplaincy: Prison Fellowship/Life Plan; Chaplaincy: Purpose Driven Life; Chaplaincy: Rabbi Visits/Study; Chaplaincy: Regenerated Life; Chaplaincy: Religious Education; Chaplaincy: Scripture Study; Chaplaincy: Seventh Day Adventist Service; Chaplaincy: Shalom Bible Institute; Chaplaincy: TBN Satellite access; Chaplaincy: The Foundation Institute; Chaplaincy: The Truth Project; Chaplaincy: The Value of God; Chaplaincy: Worship Services (English/Spanish/Creole)" }, "geometry": { "type": "Point", "coordinates": [ -80.496808, 25.6485353 ] } },
{ "type": "Feature", "properties": { "name": "South Florida Reception Center, South Unit", "jurisdiction": "Florida", "agency": "Florida Department of Corrections (FDC)", "facility_url": "https://fdc.myflorida.com/institutions/institutions-list/403", "street_address": "13910 NW 41st Street", "city": "Doral", "state": "FL", "zip_code": "33178-3014", "county": "Miami-Dade", "office": "Region 4", "latitude": 25.8116448, "longitude": -80.3860263, "warden": "Jimmy Love", "capacity": 889.0, "gender": "Male", "phone": "(305) 592-9710", "fax": "(305) 592-5628", "chaplain_phone": "(305) 592-9567", "warden_email": "jimmy.love@fdc.myflorida.com", "general_email": "SFRC.WardenOffice@fdc.myflorida.com", "contact_name": "Gary Becker", "recruiter_email": "Gary.Becker@fdc.myflorida.com", "contact_phone": "(305) 717-0234", "hours": "9:00 a.m. - 3:00 p.m. EST", "programs": "Academic: Adult Basic Education; Academic: General Education Development (GED); Academic: Literacy; Chaplaincy: Chapel Library Program; Chaplaincy: Father's Purpose; Chaplaincy: Religious Education; Chaplaincy: Spanish Services; Chaplaincy: Worship Services" }, "geometry": { "type": "Point", "coordinates": [ -80.3860263, 25.8116448 ] } },
{ "type": "Feature", "properties": { "name": "Sago Palm Re-Entry Center", "jurisdiction": "Florida", "agency": "Florida Department of Corrections (FDC)", "facility_url": "https://fdc.myflorida.com/institutions/institutions-list/464", "street_address": "500 Bay Bottom Road", "city": "Pahokee", "state": "FL", "zip_code": "33476", "county": "Palm Beach", "office": "Region 4", "latitude": 26.8398766, "longitude": -80.6361602, "warden": "Robert Bryner", "capacity": 384.0, "gender": "Male", "phone": "(561) 924-4320", "fax": "", "chaplain_phone": "", "warden_email": "robert.bryner@fdc.myflorida.com", "general_email": "OkeechobeeCI.WardenOffice@fdc.myflorida.com?subject=Sago Palm Re-entry Center", "contact_name": "", "recruiter_email": "", "contact_phone": "", "hours": "9:00 a.m. - 3:00 p.m. EST", "programs": "Academic: Adult Basic Education; Academic: General Education Development; Academic: Mandatory Literacy; Academic: Peer Tutor Training; Academic: Pre-GED Class; Vocational: HVAC; Vocational: Heavy Equipment; Vocational: Plumbing; Chaplaincy: Keryx Weekends; Chaplaincy: Multi-Faith Worship Services" }, "geometry": { "type": "Point", "coordinates": [ -80.6361602, 26.8398766 ] } },
{ "type": "Feature", "properties": { "name": "Moore Haven Correctional Facility", "jurisdiction": "Florida", "agency": "Florida Department of Corrections (FDC)", "facility_url": "https://fdc.myflorida.com/institutions/institutions-list/511", "street_address": "1282 FL-78 Moore", "city": "Haven", "state": "FL", "zip_code": "33471", "county": "Glades", "office": "Region 4", "latitude": 26.8390805, "longitude": -81.1202971, "warden": "Vacant", "capacity": 985.0, "gender": "Male", "phone": "(863) 946-2420", "fax": "(863) 946-2393", "chaplain_phone": "(863) 946-2420", "warden_email": "", "general_email": "", "contact_name": "", "recruiter_email": "", "contact_phone": "", "hours": "9:00 a.m. - 3:00 p.m. EST", "programs": "Academic: Adult Basic Education; Academic: General Educational Development (GED); Academic: Volunteer Literacy Program; Vocational: Barbering; Vocational: Hospitality; Vocational: Technical Support Services; Vocational: Tourism/Environmental Services; Chaplaincy: Chapel Library Program; Chaplaincy: Special Events; Chaplaincy: Religious Education; Chaplaincy: Worship Services" }, "geometry": { "type": "Point", "coordinates": [ -81.1202971, 26.8390805 ] } },
{ "type": "Feature", "properties": { "name": "Holmes Correctional Institution", "jurisdiction": "Florida", "agency": "Florida Department of Corrections (FDC)", "facility_url": "https://fdc.myflorida.com/institutions/institutions-list/107", "street_address": "3142 Thomas Drive", "city": "Bonifay", "state": "FL", "zip_code": "32425-0190", "county": "Holmes", "office": "Region 1", "latitude": 30.758219, "longitude": -85.6704693, "warden": "Lorie Lykins", "capacity": null, "gender": "Male", "phone": "(850) 547-8600", "fax": "(850) 547-0522", "chaplain_phone": "(850) 547-8598", "warden_email": "lorie.lykins@fdc.myflorida.com", "general_email": "HolmesCI.WardenOffice@fdc.myflorida.com", "contact_name": "LaDonia Cade", "recruiter_email": "Ladonia.Cade@fdc.myflorida.com", "contact_phone": "(850) 547-8831", "hours": "8:00 a.m. - 2:00 p.m. CST", "programs": "Academic: Adult Basic Education (Main Unit & Work Camp); Academic: General Educational Development (GED) (Main Unit & Work Camp); Academic: Special Education Services; Academic: Title I Services; Chaplaincy: 12 Steps with Jesus Christ; Chaplaincy: Baptisms; Chaplaincy: Catholic Studies/Communion; Chaplaincy: Chapel Library Program; Chaplaincy: Chapel Media Center - DVD Educational; Chaplaincy: Chapel Re-Entry Classes; Chaplaincy: Conquering Additions; Chaplaincy: Evangelism Explosion - Prison E.E.; Chaplaincy: Faith and Character Based Program - Phase II; Chaplaincy: Hebrew Israelite Study; Chaplaincy: Independent Religious Study Program; Chaplaincy: Interfaith Mediation; Chaplaincy: Islamic Jumah Prayer; Chaplaincy: Jehovah Witness Bible Study; Chaplaincy: Jewish Sabbath Prayer Services; Chaplaincy: Mentoring; Chaplaincy: Music/Band; Chaplaincy: Primary Worship Opportunities" }, "geometry": { "type": "Point", "coordinates": [ -85.6704693, 30.758219 ] } },
{ "type": "Feature", "properties": { "name": "Okeechobee Correctional Institution", "jurisdiction": "Florida", "agency": "Florida Department of Corrections (FDC)", "facility_url": "https://fdc.myflorida.com/institutions/institutions-list/404", "street_address": "3420 N.E. 168th Street", "city": "Okeechobee", "state": "FL", "zip_code": "34972-4824", "county": "Okeechobee", "office": "Region 4", "latitude": 27.3961925, "longitude": -80.7844785, "warden": "Anthony Santiago", "capacity": null, "gender": "Male", "phone": "(863) 462-5400", "fax": "(863) 462-5402", "chaplain_phone": "(863) 824-1037", "warden_email": "anthony.santiago@fdc.myflorida.com", "general_email": "OkeechobeeCI.WardenOffice@fdc.myflorida.com", "contact_name": "Christen Wares", "recruiter_email": "Christen.Wares@fdc.myflorida.com", "contact_phone": "(863) 824-1019", "hours": "9:00 a.m. - 3:00 p.m. EST", "programs": "Academic: Adult Basic Education; Academic: General Education Development (GED); Academic: Introduction to Civics Education Program; Academic: Mandatory Literacy; Academic: PRE-GED Class; Vocational: HVAC; Chaplaincy: Christ Fellowship; Chaplaincy: Chapel Library Program; Chaplaincy: Faith and Character Based Programming; Chaplaincy: KAIROS Weekends; Chaplaincy: Multi-faith Worship Services; Chaplaincy: Prison Fellowship Quarterly; Chaplaincy: Religious Education" }, "geometry": { "type": "Point", "coordinates": [ -80.7844785, 27.3961925 ] } },
{ "type": "Feature", "properties": { "name": "Calhoun Correctional Institution", "jurisdiction": "Florida", "agency": "Florida Department of Corrections (FDC)", "facility_url": "https://fdc.myflorida.com/institutions/institutions-list/105", "street_address": "19562 SE Institution Dr.", "city": "Blountstown", "state": "FL", "zip_code": "32424-5156", "county": "Calhoun", "office": "Region 1", "latitude": 30.4435293, "longitude": -85.0451953, "warden": "Patricia Rodgers", "capacity": null, "gender": "Male", "phone": "(850) 237-6500", "fax": "(850) 237-6508", "chaplain_phone": "(850) 237-6580", "warden_email": "patricia.rodgers@fdc.myflorida.com", "general_email": "CalhounCI.WardenOffice@fdc.myflorida.com", "contact_name": "Tracy Carman", "recruiter_email": "Tracy.Carman@fdc.myflorida.com", "contact_phone": "(850) 237-3336", "hours": "8:00 a.m. - 2:00 p.m. CST", "programs": "Academic: Adult Basic Education (ABE); Academic: Comprehensive Adult Student Assessment Systems (CASAS); Academic: General Educational Development (GED); Academic: Mavis Beacon Typing; Academic: Online Career Skills, Industry Credentials and Academic Support (ATLO); Academic: Reading Literacy; Vocational: Construction Technology; Vocational: Graphic Arts; Vocational: Landscape / Turf Management; Vocational: Printing; Vocational: Web Design; Chaplaincy: Chapel Library; Chaplaincy: Praise Team; Chaplaincy: Recovery Groups; Chaplaincy: Religious Education Classes; Chaplaincy: Religious Holiday Observances; Chaplaincy: Worship services" }, "geometry": { "type": "Point", "coordinates": [ -85.0451953, 30.4435293 ] } },
{ "type": "Feature", "properties": { "name": "Dade Correctional Institution", "jurisdiction": "Florida", "agency": "Florida Department of Corrections (FDC)", "facility_url": "https://fdc.myflorida.com/institutions/institutions-list/463", "street_address": "19000 S.W. 377th Street Florida", "city": "City", "state": "FL", "zip_code": "33034-6409", "county": "Miami-Dade", "office": "Region 4", "latitude": 25.41532, "longitude": -80.497996, "warden": "Jimmy Love", "capacity": null, "gender": "Male", "phone": "(305) 242-1900", "fax": "(305) 242-1881", "chaplain_phone": "(305) 242-1900", "warden_email": "jimmy.love@fdc.myflorida.com", "general_email": "DadeCI.WardenOffice@fdc.myflorida.com", "contact_name": "Cristina Coronado", "recruiter_email": "Cristina.Coronado@fdc.myflorida.com", "contact_phone": "(786) 349-2327", "hours": "9:00 a.m. - 3:00 p.m. EST", "programs": "Academic: Adult Basic Education; Academic: Compass 100 Program; Academic: GED Class; Academic: Pre-GED Class; Academic: Re-entry Program; Academic: Volunteer Literacy Program; Vocational: Barbering Program; Chaplaincy: Alcoholics Anonymous; Chaplaincy: Be Strong; Chaplaincy: Chapel Library; Chaplaincy: Chapel Band; Chaplaincy: Faith based Self Improvement Courses; Chaplaincy: Family Matters/Domestic Violence; Chaplaincy: Kairos Weekends; Chaplaincy: M.I.N.T.S – Theological Seminary; Chaplaincy: Multi-faith Worship Services; Chaplaincy: Parenting; Chaplaincy: Prison Fellowship Programs; Chaplaincy: Religious Education" }, "geometry": { "type": "Point", "coordinates": [ -80.497996, 25.41532 ] } },
{ "type": "Feature", "properties": { "name": "South Florida Reception Center", "jurisdiction": "Florida", "agency": "Florida Department of Corrections (FDC)", "facility_url": "https://fdc.myflorida.com/institutions/institutions-list/402", "street_address": "14000 NW 41st Street", "city": "Doral", "state": "FL", "zip_code": "33178-3003", "county": "Miami-Dade", "office": "Region 4", "latitude": 25.8056113, "longitude": -80.4263931, "warden": "Francisco Acosta", "capacity": null, "gender": "Male", "phone": "(305) 592-9567", "fax": "(305) 592-5628", "chaplain_phone": "(305) 592-9567", "warden_email": "francisco.acosta@fdc.myflorida.com", "general_email": "SFRC.WardenOffice@fdc.myflorida.com", "contact_name": "Gary Becker", "recruiter_email": "Gary.Becker@fdc.myflorida.com", "contact_phone": "(305) 717-0234", "hours": "9:00 a.m. - 3:00 p.m. EST", "programs": "Academic: Adult Basic Education; Academic: General Education Development (GED); Academic: Special Education Screening (Child Find); Chaplaincy: Chapel Library Program; Chaplaincy: Conflict Resolution Seminars; Chaplaincy: Faith and Character Program; Chaplaincy: Great Dads; Chaplaincy: Leadership; Chaplaincy: Marriage Program; Chaplaincy: Prison Fellowship; Chaplaincy: Religious Education; Chaplaincy: Religious Seminars; Chaplaincy: Worship Services" }, "geometry": { "type": "Point", "coordinates": [ -80.4263931, 25.8056113 ] } },
{ "type": "Feature", "properties": { "name": "Florida State Prison", "jurisdiction": "Florida", "agency": "Florida Department of Corrections (FDC)", "facility_url": "https://fdc.myflorida.com/institutions/institutions-list/205", "street_address": "23916 NW 83rd Ave", "city": "Raiford", "state": "FL", "zip_code": "32083", "county": "Bradford", "office": "Region 2", "latitude": 30.0579915, "longitude": -82.1825893, "warden": "David Allen", "capacity": null, "gender": "Male", "phone": "(904) 368-2500", "fax": "(904) 368-2732", "chaplain_phone": "(904) 368-8894", "warden_email": "david.allen@fdc.myflorida.com", "general_email": "FSP.WardenOffice@fdc.myflorida.com", "contact_name": "Shawna Evans", "recruiter_email": "shawna.evans@fdc.myflorida.com", "contact_phone": "(904) 368-8834", "hours": "9:00 a.m. - 3:00 p.m. EST", "programs": "Academic: Adult Basic Education (Close Management & Open Population); Academic: Continuing Education (Close Management); Academic: General Educational Development (GED) (Close Management & Open Population); Academic: Inmate Teaching Assistant Program (ITA); Academic: Special Education Services (Close Management); Academic: Voluntary Literacy (Close Management and Open Population); Chaplaincy: Bible Studies; Chaplaincy: Chapel Library Program; Chaplaincy: Close Management Bible Study Course; Chaplaincy: Close Management Cell Front Visitation; Chaplaincy: Close Management Volunteer-Led Bible Study (Dayroom); Chaplaincy: Religious Education; Chaplaincy: Religious Holy Day Observance and Rituals; Chaplaincy: Religious Volunteer Activities; Chaplaincy: Special Religious Events; Chaplaincy: Spiritual Advisor Visits; Chaplaincy: Spiritual Crisis and Adjustment Counseling; Chaplaincy: Worship Services" }, "geometry": { "type": "Point", "coordinates": [ -82.182589299999989, 30.0579915 ] } },
{ "type": "Feature", "properties": { "name": "Florida State Prison West Unit", "jurisdiction": "Florida", "agency": "Florida Department of Corrections (FDC)", "facility_url": "https://fdc.myflorida.com/institutions/institutions-list/206", "street_address": "23916 NW 83rd Ave", "city": "Raiford", "state": "FL", "zip_code": "32026", "county": "Bradford", "office": "Region 2", "latitude": 30.0579915, "longitude": -82.1825893, "warden": "", "capacity": 802.0, "gender": "Male", "phone": "", "fax": "", "chaplain_phone": "", "warden_email": "", "general_email": "", "contact_name": "", "recruiter_email": "", "contact_phone": "", "hours": "", "programs": "" }, "geometry": { "type": "Point", "coordinates": [ -82.182589299999989, 30.0579915 ] } },
{ "type": "Feature", "properties": { "name": "Mayo Correctional Institution Annex", "jurisdiction": "Florida", "agency": "Florida Department of Corrections (FDC)", "facility_url": "https://fdc.myflorida.com/institutions/institutions-list/212", "street_address": "8784 US Highway 27 West", "city": "Mayo", "state": "FL", "zip_code": "32066-3458", "county": "Lafayette", "office": "Region 2", "latitude": 30.1307638, "longitude": -83.3046954, "warden": "Monroe Barnes", "capacity": null, "gender": "Male", "phone": "(386) 294-4500", "fax": "(386) 294-4534", "chaplain_phone": "(386) 294-7015", "warden_email": "monroe.barnes@fdc.myflorida.com", "general_email": "MayoCI.WardenOffice@fdc.myflorida.com", "contact_name": "Ashley Taylor", "recruiter_email": "Ashley.Taylor@fdc.myflorida.com", "contact_phone": "(386) 294-7012", "hours": "9:00 a.m. - 3:00 p.m. EST", "programs": "Academic: General Educational Development (GED); Vocational: Energy Technician; Vocational: Plumbing; Chaplaincy: Alcoholics Anonymous; Chaplaincy: Audio/Video Library; Chaplaincy: Bible Studies (English/Spanish); Chaplaincy: Catholic Services; Chaplaincy: Chapel Library Program; Chaplaincy: Faith and Character Based Program; Chaplaincy: Hebrew Israelite; Chaplaincy: Islamic Study/Taaleem; Chaplaincy: Jehovah's Witness; Chaplaincy: Jewish Sabbath; Chaplaincy: Jumah/Islamic Service; Chaplaincy: Miami International Theological Seminary (MINTS); Chaplaincy: Music/Band; Chaplaincy: Orthodox Jewish Services; Chaplaincy: Prison Fellowship Monthly; Chaplaincy: Ramadan; Chaplaincy: Religious Education; Chaplaincy: TBN Satellite Programming; Chaplaincy: Worship Services" }, "geometry": { "type": "Point", "coordinates": [ -83.3046954, 30.1307638 ] } },
{ "type": "Feature", "properties": { "name": "Suwannee Correctional Institution Annex", "jurisdiction": "Florida", "agency": "Florida Department of Corrections (FDC)", "facility_url": "https://fdc.myflorida.com/institutions/institutions-list/231", "street_address": "5964 U.S. Highway 90 Live", "city": "Oak", "state": "FL", "zip_code": "32060", "county": "Suwannee", "office": "Region 2", "latitude": 30.2401174, "longitude": -82.8691292, "warden": "Jared Cox", "capacity": null, "gender": "Male", "phone": "(386) 963-6201", "fax": "", "chaplain_phone": "", "warden_email": "jared.cox@fdc.myflorida.com", "general_email": "SuwanneeCI.WardenOffice@fdc.myflorida.com", "contact_name": "Rainy Bailey", "recruiter_email": "Rainy.Bailey@fdc.myflorida.com", "contact_phone": "(386) 963-6603", "hours": "9:00 a.m. - 3:00 p.m. EST", "programs": "Academic: Adult Basic Education; Academic: General Educational Development (GED); Academic: Special Education Services; Academic: Title 1 Services; Academic: Volunteer Literacy Program; Vocational: Masonry; Vocational: Plumbing Technology/Fire Sprinkler Systems Technology; Chaplaincy: Anger Resolution Class; Chaplaincy: Chapel Library Program; Chaplaincy: Communication and Anger Management Class; Chaplaincy: Faith/Character Dorm; Chaplaincy: New Life Behavior Classes; Chaplaincy: Parenting/Relationship Class; Chaplaincy: Personal Growth Programs; Chaplaincy: Religious Education; Chaplaincy: Religious Volunteer Program; Chaplaincy: Thinking for a Change; Chaplaincy: Victims Impact; Chaplaincy: Worship Services" }, "geometry": { "type": "Point", "coordinates": [ -82.8691292, 30.2401174 ] } },
{ "type": "Feature", "properties": { "name": "Graceville Correctional Facility", "jurisdiction": "Florida", "agency": "Florida Department of Corrections (FDC)", "facility_url": "https://fdc.myflorida.com/institutions/institutions-list/159", "street_address": "5168 Ezell Rd.", "city": "Graceville", "state": "FL", "zip_code": "32440", "county": "Jackson", "office": "Region 1", "latitude": 30.9442149, "longitude": -85.4892992, "warden": "Michael Mashburn", "capacity": null, "gender": "Male", "phone": "(850) 263-5500", "fax": "(850) 263-1560", "chaplain_phone": "(850) 263-5500 x 116", "warden_email": "michael.mashburn@mtctrains.com", "general_email": "", "contact_name": "", "recruiter_email": "", "contact_phone": "", "hours": "8:00 a.m. - 2:00 p.m. CST", "programs": "Academic: Adult Basic Education; Academic: Ashland University; Academic: General Educational Development (GED); Academic: Mandatory Literacy Program; Vocational: Auburn K-9 Program; Vocational: Barber; Vocational: Commercial Driver’s License; Vocational: Landscape Management; Vocational: Technical Support Services; Chaplaincy: Baptism Services; Chaplaincy: Bible Studies; Chaplaincy: Centering Prayer; Chaplaincy: Chapel Library Program; Chaplaincy: Chapel Music Program; Chaplaincy: Discipleship; Chaplaincy: Family Integrity Training; Chaplaincy: Global Leadership Summit; Chaplaincy: Holy Day Observation Program; Chaplaincy: Hope Events - Prison Fellowship; Chaplaincy: Meditation; Chaplaincy: Mentoring; Chaplaincy: Native American Prayer Circle; Chaplaincy: New & Old Testament Bible Studies; Chaplaincy: Personal Growth Programs; Chaplaincy: Praise Team; Chaplaincy: Prison Fellowship Academy; Chaplaincy: Religious Education; Chaplaincy: Religious Volunteers; Chaplaincy: Service Opportunity for all Faith Groups; Chaplaincy: Spanish Service; Chaplaincy: Spiritual Advisor Visit Program; Chaplaincy: TBN Second Chance Site Program; Chaplaincy: Variety of Special Religious Events; Chaplaincy: Worship Services" }, "geometry": { "type": "Point", "coordinates": [ -85.4892992, 30.9442149 ] } },
{ "type": "Feature", "properties": { "name": "Lake City Correctional Facility", "jurisdiction": "Florida", "agency": "Florida Department of Corrections (FDC)", "facility_url": "https://fdc.myflorida.com/institutions/institutions-list/219", "street_address": "7906 East Highway 90 Lake", "city": "City", "state": "FL", "zip_code": "32055-6290", "county": "Columbia", "office": "Region 2", "latitude": 30.1922794, "longitude": -82.5084358, "warden": "Lakichia Wilson", "capacity": 894.0, "gender": "Male", "phone": "(386) 755-3379", "fax": "(386) 752-7202", "chaplain_phone": "(386) 755-3379, ext. 7232", "warden_email": "lakichia.wilson@corecivic.com", "general_email": "", "contact_name": "", "recruiter_email": "", "contact_phone": "", "hours": "9:00 a.m. - 3:00 p.m. EST", "programs": "Academic: Adult Basic Education; Academic: General Educational Development (GED); Academic: Volunteer Literacy Program; Vocational: Barbering; Vocational: Commercial Foods and Culinary Arts; Vocational: Environmental Services; Vocational: HVAC; Vocational: Tile Setting" }, "geometry": { "type": "Point", "coordinates": [ -82.5084358, 30.1922794 ] } },
{ "type": "Feature", "properties": { "name": "Columbia Correctional Institution", "jurisdiction": "Florida", "agency": "Florida Department of Corrections (FDC)", "facility_url": "https://fdc.myflorida.com/institutions/institutions-list/201", "street_address": "216 S.E. Corrections Way Lake", "city": "City", "state": "FL", "zip_code": "32025-2013", "county": "Columbia", "office": "Region 2", "latitude": 30.1931724, "longitude": -82.5027649, "warden": "Shawn Swain", "capacity": null, "gender": "Male", "phone": "(386) 754-7600", "fax": "(386) 754-1632", "chaplain_phone": "(386) 292-7001", "warden_email": "shawn.swain@fdc.myflorida.com", "general_email": "ColumbiaCI.WardenOffice@fdc.myflorida.com", "contact_name": "Tammy Eadie", "recruiter_email": "Tammy.Eadie@fdc.myflorida.com", "contact_phone": "(386) 292-7090", "hours": "9:00 a.m. - 3:00 p.m. EST", "programs": "Academic: Adult Basic Education; Academic: General Educational Development (GED); Academic: Literacy Program; Academic: Special Education Services; Academic: Title 1 Services; Vocational: Applied Information Technology; Vocational: Masonry Brick and Block; Chaplaincy: Alcoholics Anonymous Group; Chaplaincy: Audio/Video Library; Chaplaincy: Catholic Services; Chaplaincy: Celebrate Recovery; Chaplaincy: Chapel Library Program; Chaplaincy: Faith and Character Base Program; Chaplaincy: Fatherhood; Chaplaincy: Hebrew Israelite; Chaplaincy: Hebrew Language Study; Chaplaincy: Independent Directed Study; Chaplaincy: Inside/Outside Dads; Chaplaincy: Islamic Study/Taaleem; Chaplaincy: Jehovah Witness; Chaplaincy: Jewish Sabbath; Chaplaincy: Jummah/Islamic Service; Chaplaincy: Jump Start; Chaplaincy: Kairos; Chaplaincy: Orthodox Jewish Services; Chaplaincy: Prison Fellowship Monthly; Chaplaincy: Ramadan; Chaplaincy: Religious Education; Chaplaincy: Religious Holiday Observances; Chaplaincy: Spanish Services; Chaplaincy: Worship Band; Chaplaincy: Worship Services" }, "geometry": { "type": "Point", "coordinates": [ -82.5027649, 30.1931724 ] } },
{ "type": "Feature", "properties": { "name": "Columbia Correctional Institution Annex", "jurisdiction": "Florida", "agency": "Florida Department of Corrections (FDC)", "facility_url": "https://fdc.myflorida.com/institutions/institutions-list/251", "street_address": "216 S.E. Corrections Way Lake", "city": "City", "state": "FL", "zip_code": "32025-2013", "county": "Columbia", "office": "Region 2", "latitude": 30.1931724, "longitude": -82.5027649, "warden": "Shawn Swain", "capacity": null, "gender": "Male", "phone": "(386) 754-7600", "fax": "(386) 754-1632", "chaplain_phone": "(386) 292-7150", "warden_email": "shawn.swain@fdc.myflorida.com", "general_email": "ColumbiaCI.WardenOffice@fdc.myflorida.com", "contact_name": "Tammy Eadie", "recruiter_email": "Tammy.Eadie@fdc.myflorida.com", "contact_phone": "(386) 292-7090", "hours": "9:00 a.m. - 3:00 p.m. EST", "programs": "Academic: Adult Basic Education; Academic: General Educational Development (GED); Academic: Literacy Program; Academic: Second Chance Pell Program; Academic: Special Education Services; Academic: Title 1 Services; Chaplaincy: Alcoholics Anonymous Group; Chaplaincy: Audio/Video Library; Chaplaincy: Catholic Services; Chaplaincy: Celebrate Recovery; Chaplaincy: Chapel Library Program; Chaplaincy: Faith and Character Base Program; Chaplaincy: Hebrew Israelite; Chaplaincy: Hebrew Language Study; Chaplaincy: Independent Directed Study; Chaplaincy: Inside/Outside Dads; Chaplaincy: Islamic Study/Taaleem; Chaplaincy: Jehovah Witness; Chaplaincy: Jewish Sabbath; Chaplaincy: Jummah/Islamic Service; Chaplaincy: Kairos; Chaplaincy: KOLBE Prison Ministry; Chaplaincy: Orthodox Jewish Services; Chaplaincy: Prison Fellowship Monthly; Chaplaincy: Ramadan; Chaplaincy: Religious Education; Chaplaincy: Religious Holiday Observances; Chaplaincy: Spanish Services; Chaplaincy: Worship Band; Chaplaincy: Worship Services" }, "geometry": { "type": "Point", "coordinates": [ -82.5027649, 30.1931724 ] } },
{ "type": "Feature", "properties": { "name": "Desoto Annex", "jurisdiction": "Florida", "agency": "Florida Department of Corrections (FDC)", "facility_url": "https://fdc.myflorida.com/institutions/institutions-list/564", "street_address": "13617 S.E. Highway 70", "city": "Arcadia", "state": "FL", "zip_code": "34266-7800", "county": "DeSoto", "office": "Region 3", "latitude": 27.2090421, "longitude": -81.8400575, "warden": "Shane Baker", "capacity": null, "gender": "Male", "phone": "(863) 494-3727", "fax": "(863) 993-7800", "chaplain_phone": "(863) 494-3727", "warden_email": "shane.baker@fdc.myflorida.com", "general_email": "DeSotoCI.WardenOffice@fdc.myflorida.com", "contact_name": "Briana Jimenez", "recruiter_email": "Briana.Jimenez@fdc.myflorida.com", "contact_phone": "(863) 485-1390", "hours": "9:00 a.m. - 3:00 p.m. EST", "programs": "Academic: Adult Basic Education; Academic: General Educational Development (GED); Academic: Special Education Services; Academic: Title I Services; Academic: Mandatory Literacy; Vocational: Welding Technology; Vocational: Building Construction Technology; Re-Entry: Career Resource Program; Re-Entry: Career Scope Assessment; Re-Entry: Compass 180 Program; Re-Entry: Financial Freedom; Re-Entry: FL Hires Masonry Program; Re-Entry: Florida CHOICES Career Planner; Re-Entry: Florida Ready to Work; Re-Entry: Jack Brewer Fatherhood Initiative; Re-Entry: Re-Entry Dormitory; Re-Entry: Re-Entry Seminar; Re-Entry: Re-Entry Simulator; Re-Entry: Thinking for a Change; Chaplaincy: 7 Habits of Highly Successful People; Chaplaincy: Anger Management; Chaplaincy: Anger and Communication; Chaplaincy: Audio/Visual/Library Program; Chaplaincy: Biblical Hermeneutics Study Class; Chaplaincy: Bridges to Life; Chaplaincy: Buddhist Services; Chaplaincy: Catholic Bible Study; Chaplaincy: Catholic Worship Services (Hispanic/English); Chaplaincy: Chapel Library Program; Chaplaincy: Chaplains Sunday Morning Service; Chaplaincy: Domestic Violence; Chaplaincy: Elementary Biblical Hebrew; Chaplaincy: Faith and Character Based Dormitory Program; Chaplaincy: Global Leadership; Chaplaincy: Grief Share; Chaplaincy: Hebreo 13.3; Chaplaincy: Hebrew Israelite Study; Chaplaincy: Hispanic Non-Denominational Bible Study; Chaplaincy: Jehovah Witness (Hispanic/English); Chaplaincy: Jehovah Witness Bible Study (Hispanic/English); Chaplaincy: Journaling; Chaplaincy: Jummah Prayer (Muslim); Chaplaincy: Kairos Reunion; Chaplaincy: Kairos Weekends; Chaplaincy: Kingdom Man; Chaplaincy: Mentoring; Chaplaincy: MINTS (Miami International Theological Seminary); Chaplaincy: Parenting from the Inside Out; Chaplaincy: Praise Band; Chaplaincy: Prison Fellowship Academy; Chaplaincy: Riverside Ministries (Hispanic); Chaplaincy: Rock of Ages Ministry; Chaplaincy: Seventh Day Adventist Services; Chaplaincy: Sex Addiction/Pornography counseling; Chaplaincy: Shabbat (Jewish Services); Chaplaincy: Spanish Calvary (Centro Cristiano El Calvario); Chaplaincy: Taaleem Studies (Muslim); Chaplaincy: Transformation Group Study Class (Biblical World Views); Chaplaincy: TUMI “The Urban Ministries Institute Seminary Program”; Chaplaincy: Way of Purity; Chaplaincy: Westminster Confession of Faith Class; Chaplaincy: Wiccan Service; Chaplaincy: Worship Services" }, "geometry": { "type": "Point", "coordinates": [ -81.8400575, 27.2090421 ] } },
{ "type": "Feature", "properties": { "name": "Polk Correctional Institution", "jurisdiction": "Florida", "agency": "Florida Department of Corrections (FDC)", "facility_url": "https://fdc.myflorida.com/institutions/institutions-list/580", "street_address": "10800 Evans Road Polk", "city": "City", "state": "FL", "zip_code": "33868-6925", "county": "Polk", "office": "Region 3", "latitude": 28.1884566, "longitude": -81.7851635, "warden": "Leslee Pippin", "capacity": null, "gender": "Male", "phone": "(863) 984-2273", "fax": "(863) 965-6374", "chaplain_phone": "(863) 984-2273", "warden_email": "leslee.pippin@fdc.myflorida.com", "general_email": "PolkCI.WardenOffice@fdc.myflorida.com", "contact_name": "Pamela Soby", "recruiter_email": "pamela.soby@fdc.myflorida.com", "contact_phone": "(863) 984-1452", "hours": "9:00 a.m. - 3:00 p.m. EST", "programs": "Academic: Adult Basic Education; Academic: General Educational Development (GED); Academic: Mandatory Literacy Program; Chaplaincy: Apostolic; Chaplaincy: Buddhist Services; Chaplaincy: Catholic Services; Chaplaincy: Exodus Service; Chaplaincy: Faith Based Dormitory Program; Chaplaincy: FIT - Family Integrity Training Program; Chaplaincy: Full Pardon Ministries; Chaplaincy: Gavel Club-Toastmasters; Chaplaincy: God Behind Bars; Chaplaincy: Hebrew Israelite Services; Chaplaincy: Hope 4 2 Day; Chaplaincy: Iglesia de Dios Services; Chaplaincy: Jehovah Witness Services; Chaplaincy: Jesus Christ Ministry; Chaplaincy: Jewish Services; Chaplaincy: Jummah Prayer Service; Chaplaincy: Kairos; Chaplaincy: Messianic Jewish Services; Chaplaincy: Orthodox Jewish Services; Chaplaincy: Parkview Christian Church Service; Chaplaincy: Restoring Hope; Chaplaincy: Revealing Truth; Chaplaincy: Rocco Morelli Service; Chaplaincy: Seventh Day Adventist; Chaplaincy: Softball Ministries; Chaplaincy: Song of Solomon; Chaplaincy: Spanish Ministry and Service; Chaplaincy: Spanish Ministry Band; Chaplaincy: Taaleem Services; Chaplaincy: TUMI; Chaplaincy: Unbroken Dreams; Chaplaincy: Wesleyan; Chaplaincy: Wings on Eagles; Chaplaincy: Word of Life" }, "geometry": { "type": "Point", "coordinates": [ -81.7851635, 28.1884566 ] } },
{ "type": "Feature", "properties": { "name": "Zephyrhills Correctional Institution", "jurisdiction": "Florida", "agency": "Florida Department of Corrections (FDC)", "facility_url": "https://fdc.myflorida.com/institutions/institutions-list/573", "street_address": "2739 Gall Boulevard", "city": "Zephyrhills", "state": "FL", "zip_code": "33541-9701", "county": "Pasco", "office": "Region 3", "latitude": 28.199016, "longitude": -82.1992313, "warden": "Timmy Robinson Sr.", "capacity": 748.0, "gender": "Male", "phone": "(813) 782-5521", "fax": "(813) 780-0134", "chaplain_phone": "(813) 780-3186", "warden_email": "timmy.robinsonsr@fdc.myflorida.com", "general_email": "ZephyrhillsCI.WardenOffice@fdc.myflorida.com", "contact_name": "Eboni Negron", "recruiter_email": "eboni.negron@fdc.myflorida.com", "contact_phone": "(813) 780-3106", "hours": "9:00 a.m. - 3:00 p.m. EST", "programs": "Academic: Adult Basic Education; Academic: ATLO (Technology Student); Academic: General Educational Development (GED); Academic: Literacy; Chaplaincy: 7th Day Adventist worship service; Chaplaincy: 7th Day Adventist study; Chaplaincy: Alcoholics Anonymous A.A.; Chaplaincy: Bell Shoals services; Chaplaincy: Bible Study Fellowship; Chaplaincy: Breaking Chains International; Chaplaincy: Buddhist Study; Chaplaincy: Calvary Chapel Services; Chaplaincy: Catholic services - Mental Health; Chaplaincy: Catholic Mass - Chapel; Chaplaincy: Chapel Choir and Band; Chaplaincy: Chapel Library Program; Chaplaincy: Creation Institute series class; Chaplaincy: Fire of Faith Ministries; Chaplaincy: Grassroots Sharing Your Faith; Chaplaincy: Grief Share; Chaplaincy: Hebrew Israelite Study; Chaplaincy: Intercessory Prayer service; Chaplaincy: Introductory Bible class; Chaplaincy: Jehovah Witness services and study; Chaplaincy: Jewish Sabbath - Messianic; Chaplaincy: Jewish Sabbath - Orthodox; Chaplaincy: Jummah Worship Service (Islamic); Chaplaincy: Kairos Prison Ministry Programs (Compound and Mental Health); Chaplaincy: Kairos Pray and Share; Chaplaincy: MFC Behind the Wire Ministries; Chaplaincy: Miami International Seminary (MINTS); Chaplaincy: Native American Studies; Chaplaincy: Net Ministries; Chaplaincy: New Believers 101; Chaplaincy: Observance of Holy Days (Christian, Jewish, Muslim, Buddhist, ...); Chaplaincy: Pentecostal Study; Chaplaincy: Prison Fellowship weekly; Chaplaincy: Religious Counseling; Chaplaincy: Religious Education; Chaplaincy: Spanish Bible Study; Chaplaincy: Special events (Christian music from 1st Baptist Lutz choir, Interdenominational compound revival program, ...); Chaplaincy: Sunday Worship Services - Chapel; Chaplaincy: Taaleem (Islamic studies); Chaplaincy: Turning Hearts Ministry; Chaplaincy: Worship Services - Mental Health" }, "geometry": { "type": "Point", "coordinates": [ -82.1992313, 28.199016 ] } },
{ "type": "Feature", "properties": { "name": "Lancaster Correctional Institution", "jurisdiction": "Florida", "agency": "Florida Department of Corrections (FDC)", "facility_url": "https://fdc.myflorida.com/institutions/institutions-list/281", "street_address": "3449 S.W. State Road 26", "city": "Trenton", "state": "FL", "zip_code": "32693-5641", "county": "Gilchrist", "office": "Region 2", "latitude": 29.6099577, "longitude": -82.8636435, "warden": "Shannon Varnes", "capacity": 544.0, "gender": "Male", "phone": "(352) 463-4100", "fax": "(352) 463-3476", "chaplain_phone": "(352) 463-4938", "warden_email": "Shannon.Varnes@fdc.myflorida.com", "general_email": "LancasterCI.WardenOffice@fdc.myflorida.com", "contact_name": "Savannah Godoy", "recruiter_email": "Savannah.Godoy@fdc.myflorida.com", "contact_phone": "(352) 463-4871", "hours": "9:00 a.m. - 3:00 p.m. EST", "programs": "Academic: Adult Basic Education; Academic: General Educational Development (GED); Academic: Special Education Services; Academic: Title I Services; Chaplaincy: Alcoholics Anonymous Group; Chaplaincy: Black History Month Program; Chaplaincy: Buddhist Study Group; Chaplaincy: Cast the Net Ministry; Chaplaincy: Catholic Worship Service; Chaplaincy: Celebrate Recovery Group; Chaplaincy: Chapel Library Program; Chaplaincy: Christian Bible Study Group; Chaplaincy: Faith-Based Dormitory; Chaplaincy: Gideons International; Chaplaincy: Glick Family Music Ministry; Chaplaincy: Hebrew Israelite Study Group; Chaplaincy: Institute in Basic Life Principles Seminars; Chaplaincy: Islamic Study Group (Jumu'ah); Chaplaincy: Islamic Worship Service (Taaleem); Chaplaincy: Jehovah's Witness Study Group; Chaplaincy: Jewish Study Group; Chaplaincy: Journey to the Heart Seminar; Chaplaincy: Lighthouse Word Church Ministries; Chaplaincy: Meditation Class Mentoring; Chaplaincy: Movie Ministries; Chaplaincy: Music Concerts; Chaplaincy: Music Lesson Classes; Chaplaincy: Orientation Welcome Packet Ministry; Chaplaincy: Religious Education; Chaplaincy: Seventh Day Adventist Service; Chaplaincy: Spanish Christian Worship Service; Chaplaincy: Sunday Morning Worship Service; Chaplaincy: What on Earth am I here for? Bible Study; Chaplaincy: Wiccan Study Group; Chaplaincy: Worship Services" }, "geometry": { "type": "Point", "coordinates": [ -82.8636435, 29.6099577 ] } },
{ "type": "Feature", "properties": { "name": "Tomoka Correctional Institution", "jurisdiction": "Florida", "agency": "Florida Department of Corrections (FDC)", "facility_url": "https://fdc.myflorida.com/institutions/institutions-list/282", "street_address": "3950 Tiger Bay Road Daytona", "city": "Beach", "state": "FL", "zip_code": "32124-1098", "county": "Volusia", "office": "Region 2", "latitude": 29.15545, "longitude": -81.1593958, "warden": "Chris Lane", "capacity": null, "gender": "Male", "phone": "(386) 323-1070", "fax": "(386) 323-1006", "chaplain_phone": "(386) 323-1094", "warden_email": "chris.lane@fdc.myflorida.com", "general_email": "TomokaCI.WardenOffice@fdc.myflorida.com", "contact_name": "Jessica Roman", "recruiter_email": "Jessica.Roman@fdc.myflorida.com", "contact_phone": "(386) 323-1096", "hours": "9:00 a.m. - 3:00 p.m. EST", "programs": "Academic: Adult Basic Education; Academic: General Educational Development (GED); Academic: Inmate Teaching Program; Academic: Stetson University, Community Education Project; Vocational: Landscape and Turf Management; Vocational: Masonry; Chaplaincy: Alcoholics Anonymous Meetings; Chaplaincy: Catholic Services; Chaplaincy: Celebrate Recovery; Chaplaincy: Chapel Religious Library; Chaplaincy: Christ to Inmate Services; Chaplaincy: Full Gospel Businessman Group; Chaplaincy: Hebrew Israelite Services; Chaplaincy: Horizon Dorm Faith & Character Programs; Chaplaincy: Independent Baptist Services; Chaplaincy: International Bible College Institute; Chaplaincy: Jehovah's Witness (Spanish); Chaplaincy: Jehovah's Witness (English); Chaplaincy: Jummah Services; Chaplaincy: Kairos Prison Ministry; Chaplaincy: Messianic Jewish Services; Chaplaincy: Native American Services; Chaplaincy: Orthodox Jewish Services; Chaplaincy: Overcomers Group; Chaplaincy: Pentecostal Church Services; Chaplaincy: Prison Fellowship; Chaplaincy: Religious Education Videos; Chaplaincy: Seventh Day Adventist Services; Chaplaincy: Southern Baptist Services; Chaplaincy: Spanish Christian Services; Chaplaincy: Wicca Study Group" }, "geometry": { "type": "Point", "coordinates": [ -81.1593958, 29.15545 ] } },
{ "type": "Feature", "properties": { "name": "Cross City Correctional Institution", "jurisdiction": "Florida", "agency": "Florida Department of Corrections (FDC)", "facility_url": "https://fdc.myflorida.com/institutions/institutions-list/211", "street_address": "568 N.E. 255th Street Cross", "city": "City", "state": "FL", "zip_code": "32628", "county": "Dixie", "office": "Region 2", "latitude": 29.6313397, "longitude": -83.099284, "warden": "Jeff Kennedy", "capacity": null, "gender": "Male", "phone": "(352) 498-4444", "fax": "(352) 498-1251", "chaplain_phone": "(352) 498-4793", "warden_email": "jeff.kennedy@fdc.myflorida.com", "general_email": "CrossCityCI.WardenOffice@fdc.myflorida.com", "contact_name": "Ashley Riley", "recruiter_email": "Ashley.Riley@fdc.myflorida.com", "contact_phone": "(352) 498-4756", "hours": "9:00 a.m. - 3:00 p.m. EST", "programs": "Academic: Adult Basic Education (ITA); Academic: General Educational Development (GED); Academic: Volunteer Literacy Program; Vocational: Automotive Collision Technology; Vocational: Brick & Block Masonry; Vocational: Carpentry; Vocational: Underground Utilities" }, "geometry": { "type": "Point", "coordinates": [ -83.099284, 29.6313397 ] } },
{ "type": "Feature", "properties": { "name": "Sumter Correctional Institution", "jurisdiction": "Florida", "agency": "Florida Department of Corrections (FDC)", "facility_url": "https://fdc.myflorida.com/institutions/institutions-list/307", "street_address": "9544 County Road 476B", "city": "Bushnell", "state": "FL", "zip_code": "33513-0667", "county": "Sumter", "office": "Region 3", "latitude": 28.6167327, "longitude": -82.2080653, "warden": "Robert Mercado", "capacity": null, "gender": "Male", "phone": "(352) 569-6100 or 568-4600", "fax": "(352) 569-6196", "chaplain_phone": "(352) 568-4657", "warden_email": "robert.mercado@fdc.myflorida.com", "general_email": "SumterCI.WardenOffice@fdc.myflorida.com", "contact_name": "Jennifer L. Petersen", "recruiter_email": "Jennifer.Petersen@fdc.myflorida.com", "contact_phone": "(352) 568-4541", "hours": "9:00 a.m. - 3:00 p.m. EST", "programs": "Academic: Adult Basic Education; Academic: Atlo Learning Management Systems; Academic: Basic Literacy; Academic: Correspondence Courses; Academic: GED; Academic: Transition Services; Academic: Wellness Education; Vocational: Administrative Office Assistant; Vocational: Braille; Vocational: Building Maintenance Management; Vocational: IN2WORK; Re-Entry: AA/NA; Re-Entry: Compass 180; Re-Entry: D.I.R.E.C.T. Program; Re-Entry: Drug Awareness and Dependency; Re-Entry: F.I.T. Anger Management; Re-Entry: Gavel Club; Re-Entry: Life Skills; Re-Entry: Marriage & Family Counseling; Re-Entry: Veterans Program; Re-Entry: Wellness Education; Chaplaincy: Celebrate Recovery; Chaplaincy: Chapel Library Services; Chaplaincy: Dream Inc.; Chaplaincy: Eternal Life Concept; Chaplaincy: Goal Setting/Life Skills; Chaplaincy: Gospel Echoes; Chaplaincy: Kairos; Chaplaincy: Men of the Word; Chaplaincy: M.I.N.T.S.; Chaplaincy: Parenting/Family; Chaplaincy: Passion for Prison; Chaplaincy: Prison Fellowship Quarterly; Chaplaincy: Redemption Point; Chaplaincy: Religious Education; Chaplaincy: Supporting Families; Chaplaincy: Worship and Praise" }, "geometry": { "type": "Point", "coordinates": [ -82.2080653, 28.6167327 ] } },
{ "type": "Feature", "properties": { "name": "Lawtey Correctional Institution", "jurisdiction": "Florida", "agency": "Florida Department of Corrections (FDC)", "facility_url": "https://fdc.myflorida.com/institutions/institutions-list/255", "street_address": "22298 NE CR 200B", "city": "Lawtey", "state": "FL", "zip_code": "32058", "county": "Bradford", "office": "Region 2", "latitude": 30.0327007, "longitude": -82.0711344, "warden": "Randall Polk", "capacity": null, "gender": "Male", "phone": "(904) 782-2000", "fax": "(904) 782-2005", "chaplain_phone": "(904) 782-2000", "warden_email": "randall.polk@fdc.myflorida.com", "general_email": "LawteyCI.WardenOffice@fdc.myflorida.com", "contact_name": "Destiny Shireman", "recruiter_email": "Destiny.Shireman@fdc.myflorida.com", "contact_phone": "(904) 782-2344", "hours": "9:00 a.m. - 3:00 p.m. EST", "programs": "Academic: Adult Basic Education; Academic: Ashland University Second Chance Pell Program; Academic: General Educational Development (GED); Academic: Literacy; Vocational: Drafting Architectural; Vocational: HVAC; Vocational: IN2WORK; Vocational: NCCER Core Construction; Vocational: OSHA 10 Class; Vocational: Plumbing; Chaplaincy: Chapel Library Program; Chaplaincy: Faith Services; Chaplaincy: Faith and Character Programming - Self Awareness, Communication and Anger; Chaplaincy: Journaling; Chaplaincy: Journey to the Heart; Chaplaincy: Kairos; Chaplaincy: Mentoring; Chaplaincy: Over 200 volunteers provide self-betterment programs; Chaplaincy: Parenting from the Inside; Chaplaincy: Strategies for Success" }, "geometry": { "type": "Point", "coordinates": [ -82.0711344, 30.0327007 ] } },
{ "type": "Feature", "properties": { "name": "Central Florida Reception Center", "jurisdiction": "Florida", "agency": "Florida Department of Corrections (FDC)", "facility_url": "https://fdc.myflorida.com/institutions/institutions-list/320", "street_address": "7000 H C Kelley Rd.", "city": "Orlando", "state": "FL", "zip_code": "32831-2518", "county": "Orange", "office": "Region 3", "latitude": 28.4633686, "longitude": -81.1540029, "warden": "Jess Baldridge", "capacity": null, "gender": "Male", "phone": "(407) 207-7777", "fax": "(407) 249-6570", "chaplain_phone": "(407) 208-8284", "warden_email": "jess.baldridge@fdc.myflorida.com", "general_email": "CFRC.WardenOffice@fdc.myflorida.com", "contact_name": "Edward Vasquez", "recruiter_email": "Edward.Vasquez@fdc.myflorida.com", "contact_phone": "(407) 208-8174", "hours": "9:00 a.m. - 3:00 p.m. EST", "programs": "Academic: ATLO (East Unit); Academic: GED Main Unit Reception - affording reception inmates the opportunity to obtain their GED while in the reception process.; Academic: OSHA (East Unit); Academic: Special Education Screening (21 & Under Special Education Verification); Chaplaincy: Chapel Library Program; Chaplaincy: God Behind Bars; Chaplaincy: Malachi Dads; Chaplaincy: Prison Fellowship Academy; Chaplaincy: Religious Education; Chaplaincy: Spiritual Counseling; Chaplaincy: St. Peters Clever; Chaplaincy: TUMI; Chaplaincy: Worship Services" }, "geometry": { "type": "Point", "coordinates": [ -81.1540029, 28.4633686 ] } },
{ "type": "Feature", "properties": { "name": "Hardee Correctional Institution", "jurisdiction": "Florida", "agency": "Florida Department of Corrections (FDC)", "facility_url": "https://fdc.myflorida.com/institutions/institutions-list/501", "street_address": "6901 State Road 62 Bowling", "city": "Green", "state": "FL", "zip_code": "33834-9505", "county": "Hardee", "office": "Region 3", "latitude": 27.5910963, "longitude": -82.0148276, "warden": "Christopher Edelen", "capacity": null, "gender": "Male", "phone": "(863) 767-3100", "fax": "(863) 767-4504", "chaplain_phone": "(863) 767-3091", "warden_email": "christopher.edelen@fdc.myflorida.com", "general_email": "HardeeCI.WardenOffice@fdc.myflorida.com", "contact_name": "Cori Dix", "recruiter_email": "Cori.Dix@fdc.myflorida.com", "contact_phone": "(863) 767-3090", "hours": "9:00 a.m. - 3:00 p.m. EST", "programs": "Academic: Adult Basic Education (Close Management and Open Population); Academic: General Education Development (GED) (Close Management and Open Population); Academic: Inmate Tutor Assistant (ITA); Academic: Title I Services (Close Management and Open Population); Vocational: Carpentry; Chaplaincy: Abe Brown Ministry; Chaplaincy: Abundant Life Ministries; Chaplaincy: Aleph Institute; Chaplaincy: Apostolic Christian Church; Chaplaincy: Arca de la Gracias (Spanish); Chaplaincy: Bayside Prison Ministries; Chaplaincy: Christian Motorcyclist Association; Chaplaincy: Church of Hope; Chaplaincy: Free Inside Ministries; Chaplaincy: Frontline Ministries; Chaplaincy: God Behind Bars; Chaplaincy: God is Good; Chaplaincy: Gospel Crusade; Chaplaincy: Heart of Florida; Chaplaincy: Hebreos 13:3 (Spanish); Chaplaincy: HOPE; Chaplaincy: Ironman Bible Institute; Chaplaincy: Jehovah Witness; Chaplaincy: Jesus Only Way Ministry; Chaplaincy: Jordan Gospel Ministry; Chaplaincy: Kairos; Chaplaincy: Kings Highway; Chaplaincy: Legacy Ministry; Chaplaincy: Men of the Word; Chaplaincy: Middleburg Church of Christ; Chaplaincy: Mount Zion Progressive Missionary Baptist Church; Chaplaincy: New Life Baptist Church/Tabernacle; Chaplaincy: Potter's House; Chaplaincy: Push for the Future; Chaplaincy: River of Life Christian Center; Chaplaincy: Riverside Ministries Spanish; Chaplaincy: Rock of Ages; Chaplaincy: Southern Palm Zen Group; Chaplaincy: Spirit & Truth Ministry; Chaplaincy: St. Michaels; Chaplaincy: The River Prison Ministry; Chaplaincy: Timothy’s Gift Ministries Walker Seventh Day Adventist" }, "geometry": { "type": "Point", "coordinates": [ -82.0148276, 27.5910963 ] } },
{ "type": "Feature", "properties": { "name": "Jefferson Correctional Institution", "jurisdiction": "Florida", "agency": "Florida Department of Corrections (FDC)", "facility_url": "https://fdc.myflorida.com/institutions/institutions-list/103", "street_address": "1050 Big Joe Road", "city": "Monticello", "state": "FL", "zip_code": "32344-0430", "county": "Jefferson", "office": "Region 1", "latitude": 30.5100575, "longitude": -83.7983076, "warden": "Timothy Mills", "capacity": null, "gender": "Male", "phone": "(850) 342-0500", "fax": "(850) 997-0973", "chaplain_phone": "(850) 342-2598", "warden_email": "timothy.mills@fdc.myflorida.com", "general_email": "JeffersonCI.WardenOffice@fdc.myflorida.com", "contact_name": "Heather Thigpen", "recruiter_email": "Heather.Mcnamee@fdc.myflorida.com", "contact_phone": "(850) 342-2527", "hours": "9:00 a.m. - 3:00 p.m. EST", "programs": "Academic: Adult Basic Education; Academic: ESL Class (English as a Second Language); Academic: General Educational Development (GED); Academic: Literacy; Vocational: Electrical; Vocational: Machine Shop; Re-Entry: Re-entry Dormitory Program; Chaplaincy: 7 Habits on the Inside; Chaplaincy: Celebrating Recovery; Chaplaincy: Chapel Library Program; Chaplaincy: Faith & Character Dormitory Program; Chaplaincy: Financial Literacy; Chaplaincy: Global Leadership Summit; Chaplaincy: Gospel Express; Chaplaincy: Kairos Prison Ministries; Chaplaincy: One Day with God; Chaplaincy: Pain to Purpose; Chaplaincy: Parables; Chaplaincy: Purpose of a Driven Life; Chaplaincy: Religious Education; Chaplaincy: Rock of Ages; Chaplaincy: Worship Services" }, "geometry": { "type": "Point", "coordinates": [ -83.7983076, 30.5100575 ] } },
{ "type": "Feature", "properties": { "name": "Franklin Correctional Institution", "jurisdiction": "Florida", "agency": "Florida Department of Corrections (FDC)", "facility_url": "https://fdc.myflorida.com/institutions/institutions-list/113", "street_address": "1760 Highway 67 North", "city": "Carrabelle", "state": "FL", "zip_code": "32322", "county": "Franklin", "office": "Region 1", "latitude": 29.8532645, "longitude": -84.664348, "warden": "KeyannaShabar Clack", "capacity": null, "gender": "Male", "phone": "(850) 697-1100", "fax": "(850) 697-1108", "chaplain_phone": "(850) 697-1274", "warden_email": "keyannashabar.clack@fdc.myflorida.com", "general_email": "FranklinCI.WardenOffice@fdc.myflorida.com", "contact_name": "Angela D. Davis", "recruiter_email": "Angela.Davis@fdc.myflorida.com", "contact_phone": "(850) 697-1331", "hours": "9:00 a.m. - 3:00 p.m. EST", "programs": "Academic: Adult Basic Education; Academic: ATLO Learning Lab; Academic: Basic Literacy Program; Academic: General Educational Development (GED); Academic: Volunteer Literacy Program; Vocational: Construction Core (Goodwill Planning); Vocational: Diesel Service Technician; Chaplaincy: 7 Habits of Highly Effective People; Chaplaincy: Alcoholics Anonymous/Narcotics Anonymous; Chaplaincy: Bible Study; Chaplaincy: Chapel Library Program; Chaplaincy: Chapel Music Program; Chaplaincy: Communication and Anger; Chaplaincy: Episcopal Studies; Chaplaincy: Faith and Character Betterment Facilitator Training Class; Chaplaincy: Faith and Character Dorm Program (also open to General Population); Chaplaincy: Financial Literacy and Employability; Chaplaincy: Gavel Club; Chaplaincy: Hebrew Israelites; Chaplaincy: Holy Day Observation Program; Chaplaincy: Individual Religious Studies; Chaplaincy: Islamic Jummah Prayer; Chaplaincy: Jehovah Witness Studies; Chaplaincy: Life Mapping; Chaplaincy: Malachi Dads; Chaplaincy: Marriage is a Ministry; Chaplaincy: MINTS (Maimi International Theological Seminary); Chaplaincy: Odinist/Asatru; Chaplaincy: Parenting from Inside; Chaplaincy: Parting is a Ministry; Chaplaincy: Personal Growth Programs; Chaplaincy: Religious Education; Chaplaincy: Religious Volunteers; Chaplaincy: Spanish Worship Programs; Chaplaincy: Special Events; Chaplaincy: Spiritual Advisor Visit Program; Chaplaincy: The Most Excellent Way (Substance Abuse); Chaplaincy: TUMI; Chaplaincy: Victim Impact; Chaplaincy: Worship Services" }, "geometry": { "type": "Point", "coordinates": [ -84.664348, 29.8532645 ] } },
{ "type": "Feature", "properties": { "name": "Jackson Correctional Institution", "jurisdiction": "Florida", "agency": "Florida Department of Corrections (FDC)", "facility_url": "https://fdc.myflorida.com/institutions/institutions-list/104", "street_address": "5563 10th Street", "city": "Malone", "state": "FL", "zip_code": "32445-3144", "county": "Jackson", "office": "Region 1", "latitude": 30.9685127, "longitude": -85.1680264, "warden": "Heath Holland", "capacity": null, "gender": "Male", "phone": "(850) 569-5260", "fax": "(850) 569-5996", "chaplain_phone": "(850) 569-1834", "warden_email": "Heath.Holland@fdc.myflorida.com", "general_email": "JacksonCI.WardenOffice@fdc.myflorida.com", "contact_name": "Carlene Morales", "recruiter_email": "Carlene.Morales@fdc.myflorida.com", "contact_phone": "(850) 569-1811", "hours": "8:00 a.m. - 2:00 p.m. CST", "programs": "Academic: Adult Basic Education; Academic: Correspondence Courses; Academic: General Educational Development (GED); Academic: Mandatory Literacy Program; Academic: Online Career Skills, Industry Credentials and Academic Support (ATLO); Vocational: Landscape/Horticulture; Chaplaincy: Audio Video Library; Chaplaincy: Chapel Library Program; Chaplaincy: Intercessory Prayer Group; Chaplaincy: Praise Team; Chaplaincy: Religious Education; Chaplaincy: Worship Services" }, "geometry": { "type": "Point", "coordinates": [ -85.1680264, 30.9685127 ] } },
{ "type": "Feature", "properties": { "name": "Liberty Correctional Institution", "jurisdiction": "Florida", "agency": "Florida Department of Corrections (FDC)", "facility_url": "https://fdc.myflorida.com/institutions/institutions-list/120", "street_address": "11064 N.W. Dempsey Barron Road", "city": "Bristol", "state": "FL", "zip_code": "32321-9711", "county": "Liberty", "office": "Region 1", "latitude": 30.4649477, "longitude": -84.8664191, "warden": "Charles Driggers", "capacity": null, "gender": "Male", "phone": "(850) 643-9400", "fax": "(850) 643-9412", "chaplain_phone": "(850) 643-9486", "warden_email": "charles.driggers@fdc.myflorida.com", "general_email": "LibertyCI.WardenOffice@fdc.myflorida.com", "contact_name": "Angela Vickery", "recruiter_email": "Angela.Vickery@fdc.myflorida.com", "contact_phone": "(850) 643-9628", "hours": "9:00 a.m. - 3:00 p.m. EST", "programs": "Academic: Adult Basic Education; Academic: Ashland University AA/BA Program; Academic: General Educational Development (GED); Academic: IJC Barber Training; Academic: IJC Warehouse Training; Academic: Volunteer Literacy Program; Academic: Wellness Education; Vocational: Applied Information Technology (LSU); Vocational: Culinary (Quincy Annex); Vocational: Masonry (Main Unit); Vocational: Waste Water - on the Job Training (Main Unit); Vocational: Welding Technology (Main Unit); Chaplaincy: Celebrate Recovery Inside; Chaplaincy: Chapel Library; Chaplaincy: Faith and Character Based Programs; Chaplaincy: Gavel Club; Chaplaincy: I.M.P.A.C.T. Program; Chaplaincy: Northwest Florida Fatherhood Initiative; Chaplaincy: Religious Studies; Chaplaincy: Spanish Services; Chaplaincy: Values and Principles; Chaplaincy: Worship Services" }, "geometry": { "type": "Point", "coordinates": [ -84.8664191, 30.4649477 ] } },
{ "type": "Feature", "properties": { "name": "Northwest Florida Reception Center", "jurisdiction": "Florida", "agency": "Florida Department of Corrections (FDC)", "facility_url": "https://fdc.myflorida.com/institutions/institutions-list/110", "street_address": "4455 Sam Mitchell Drive", "city": "Chipley", "state": "FL", "zip_code": "32428-3597", "county": "Washington", "office": "Region 1", "latitude": 30.516998, "longitude": -85.6596411, "warden": "Scott Duvall", "capacity": null, "gender": "Male", "phone": "(850) 773-6100", "fax": "(850) 773-6252", "chaplain_phone": "(850) 773-6183", "warden_email": "scott.duvall@fdc.myflorida.com", "general_email": "NWFRC.WardenOffice@fdc.myflorida.com", "contact_name": "Tiffany Haire", "recruiter_email": "Tiffany.Haire@fdc.myflorida.com", "contact_phone": "(850) 773-0315", "hours": "8:00 a.m. - 2:00 p.m. CST", "programs": "Academic: Adult Basic Education; Academic: General Educational Development (GED); Academic: Mandatory Literacy Program; Academic: Wellness Education; Vocational: Applied Computer Technologies; Vocational: Electrician Certification Program; Chaplaincy: Celebrate Recovery; Chaplaincy: Chapel Library Program; Chaplaincy: Compound Visitation; Chaplaincy: Discipleship; Chaplaincy: Faith and Character Based Dormitory; Chaplaincy: Holy Day Observation Program; Chaplaincy: Kairos Weekends; Chaplaincy: Most Excellent Way; Chaplaincy: Personal Growth Programs; Chaplaincy: Praise Band; Chaplaincy: Religious Consultations; Chaplaincy: Religious Education Classes; Chaplaincy: Religious Volunteer Program; Chaplaincy: Worship Services" }, "geometry": { "type": "Point", "coordinates": [ -85.6596411, 30.516998 ] } },
{ "type": "Feature", "properties": { "name": "Okaloosa Correctional Institution", "jurisdiction": "Florida", "agency": "Florida Department of Corrections (FDC)", "facility_url": "https://fdc.myflorida.com/institutions/institutions-list/115", "street_address": "3189 Colonel Greg Malloy Road", "city": "Crestview", "state": "FL", "zip_code": "32539-6708", "county": "Okaloosa", "office": "Region 1", "latitude": 30.6963972, "longitude": -86.5272292, "warden": "Charles Ricks", "capacity": 894.0, "gender": "Male", "phone": "(850) 682-0931", "fax": "(850) 689-7803", "chaplain_phone": "(850) 683-4095", "warden_email": "charles.ricks@fdc.myflorida.com", "general_email": "OkaloosaCI.WardenOffice@fdc.myflorida.com", "contact_name": "Amanda Hall", "recruiter_email": "Amanda.Hall@fdc.myflorida.com", "contact_phone": "(850) 683-4007", "hours": "8:00 a.m. - 2:00 p.m. CST", "programs": "Academic: Adult Basic Education; Academic: General Educational Development (GED); Academic: Mandatory Literacy; Vocational: Construction (contracted with NWFSC); Vocational: Heavy Equipment Operator (contracted with NWFSC); Vocational: Landscape Turf Management; Vocational: Masonry (contracted with NWFSC); Chaplaincy: Celebrate Recovery; Chaplaincy: Chapel Library Program; Chaplaincy: Forward in Faith; Chaplaincy: Religious Education; Chaplaincy: Walking on Water - WOW; Chaplaincy: Worship Services" }, "geometry": { "type": "Point", "coordinates": [ -86.5272292, 30.6963972 ] } },
{ "type": "Feature", "properties": { "name": "Quincy Annex", "jurisdiction": "Florida", "agency": "Florida Department of Corrections (FDC)", "facility_url": "https://fdc.myflorida.com/institutions/institutions-list/139", "street_address": "2225 Pat Thomas Parkway", "city": "Quincy", "state": "FL", "zip_code": "32351", "county": "Gadsden", "office": "Region 1", "latitude": 30.5528582, "longitude": -84.590664, "warden": "Charles Driggers", "capacity": 408.0, "gender": "Male", "phone": "(850) 627-5400", "fax": "(850) 875-3572", "chaplain_phone": "(850) 627-5445", "warden_email": "Charles.Driggers@fdc.myflorida.com", "general_email": "LibertyCI.WardenOffice@fdc.myflorida.com", "contact_name": "", "recruiter_email": "", "contact_phone": "", "hours": "9:00 a.m. - 3:00 p.m. EST", "programs": "Academic: General Educational Development (GED); Academic: Adult Basic Education; Academic: Volunteer Literacy Program; Academic: Wellness Program; Vocational: Culinary Arts; Chaplaincy: Chapel Library Program; Chaplaincy: Religious Education; Chaplaincy: Worship Services" }, "geometry": { "type": "Point", "coordinates": [ -84.590664, 30.5528582 ] } },
{ "type": "Feature", "properties": { "name": "Avon Park Correctional Institution", "jurisdiction": "Florida", "agency": "Florida Department of Corrections (FDC)", "facility_url": "https://fdc.myflorida.com/institutions/institutions-list/503", "street_address": "8100 Highway 64 East Avon", "city": "Park", "state": "FL", "zip_code": "33825", "county": "Highlands", "office": "Region 3", "latitude": 27.5917148, "longitude": -81.5676357, "warden": "Jacob Dawson", "capacity": 956.0, "gender": "Male", "phone": "(863) 452-8801", "fax": "(863) 452-3729", "chaplain_phone": "(863) 452-8906", "warden_email": "jacob.dawson@fdc.myflorida.com", "general_email": "AvonParkCI.WardenOffice@fdc.myflorida.com", "contact_name": "Brandi Conover", "recruiter_email": "brandi.conover@fdc.myflorida.com", "contact_phone": "(863) 452-8811", "hours": "9:00 a.m. - 3:00 p.m. EST", "programs": "Academic: Adult Basic Education; Academic: General Educational Development (GED); Academic: Mandatory Literacy Program; Academic: Special Education Services; Academic: Title I Services; Re-Entry: Compass 180; Re-Entry: Career Scope Assessments; Re-Entry: Outside Agency Transitional Fair; Re-Entry: Re-entry Dormitories; Re-Entry: Re-entry Seminar; Re-Entry: Self-study Transition Program; Re-Entry: Transitional Fair; Chaplaincy: ABIDE 21; Chaplaincy: Block Hustle Ministry; Chaplaincy: Bread of Life; Chaplaincy: Breaking Chains; Chaplaincy: Catholic Mass; Chaplaincy: Catechism Class; Chaplaincy: Christian Fellowship; Chaplaincy: Commitment to Change; Chaplaincy: Conquer Series; Chaplaincy: Cosecha de Dios Ministry; Chaplaincy: El Calvario Ministry; Chaplaincy: Hebrew Israelite Language Class; Chaplaincy: His for Life Ministry; Chaplaincy: House of Yahweh; Chaplaincy: Iglesias de Dios; Chaplaincy: Islamic Taaleem Class; Chaplaincy: Jehovah's Witness Service; Chaplaincy: Jewish Havdalah Religious Studies; Chaplaincy: Jewish Religious Studies; Chaplaincy: Kairos; Chaplaincy: Living by the Book Class; Chaplaincy: Living Water Ministry; Chaplaincy: Men of the Word; Chaplaincy: Messianic Religious Studies; Chaplaincy: Ministerio Pentecostal; Chaplaincy: New Beginnings Project 180; Chaplaincy: Praise Team Practice; Chaplaincy: Restoring the Way; Chaplaincy: Ridge Seventh Day Adventist Religious Studies; Chaplaincy: Riverside Ministry; Chaplaincy: Spirit+Soul+Body Bible Study; Chaplaincy: The River Ministry; Chaplaincy: The Truth Project Class; Chaplaincy: Todo Para El Ministries; Chaplaincy: Victory Tabernacle" }, "geometry": { "type": "Point", "coordinates": [ -81.5676357, 27.5917148 ] } },
{ "type": "Feature", "properties": { "name": "Wakulla Correctional Institution", "jurisdiction": "Florida", "agency": "Florida Department of Corrections (FDC)", "facility_url": "https://fdc.myflorida.com/institutions/institutions-list/118", "street_address": "110 Melaleuca Drive", "city": "Crawfordville", "state": "FL", "zip_code": "32327-4963", "county": "Wakulla", "office": "Region 1", "latitude": 30.2618984, "longitude": -84.1764832, "warden": "Gary Hewett", "capacity": null, "gender": "Male", "phone": "(850) 410-1895", "fax": "", "chaplain_phone": "(850) 413-7236", "warden_email": "gary.hewett@fdc.myflorida.com", "general_email": "WakullaCI@fdc.myflorida.com", "contact_name": "Lakrisha Delong", "recruiter_email": "Lakrisha.Delong@fdc.myflorida.com", "contact_phone": "(850) 617-0711", "hours": "9:00 a.m. - 3:00 p.m. EST", "programs": "Academic: Adult Basic Education; Academic: Adult Literacy; Academic: College Correspondence Courses; Academic: English as a Second Language (ESL); Academic: General Education Development (GED); Academic: TSC Literacy for Life; Academic: Wellness Education; Vocational: Persevere; Vocational: Power Equipment Technology; Chaplaincy: A.A. Substance Abuse Program; Chaplaincy: Apostolic Bible Study; Chaplaincy: At the Altar of Sexual Idolatry; Chaplaincy: Catholic Study; Chaplaincy: Chapel Library; Chaplaincy: Christian Apologetics; Chaplaincy: Discipleship; Chaplaincy: Episcopal Services; Chaplaincy: Hebrew-Israelite; Chaplaincy: Jehovah Witness Study (Bilingual); Chaplaincy: Jewish Sabbath; Chaplaincy: Jewish Holy Days; Chaplaincy: Jummah Service; Chaplaincy: Kairos Weekends/Reunions; Chaplaincy: Meditation; Chaplaincy: Mentoring; Chaplaincy: Miami International Theological Seminary (MINTS); Chaplaincy: Mormon LDS Study; Chaplaincy: Music Facilitators; Chaplaincy: Muslim Taaleem; Chaplaincy: Native American Prayer; Chaplaincy: Odinist Study; Chaplaincy: Purpose Driven Life; Chaplaincy: Ramadan (Muslim); Chaplaincy: Rumbley Bible/Book Study; Chaplaincy: Seventh Day Adventist; Chaplaincy: Spanish Service; Chaplaincy: Spiritual Advisor Visits; Chaplaincy: Vital Truth Bible Study" }, "geometry": { "type": "Point", "coordinates": [ -84.1764832, 30.2618984 ] } },
{ "type": "Feature", "properties": { "name": "Walton Correctional Institution", "jurisdiction": "Florida", "agency": "Florida Department of Corrections (FDC)", "facility_url": "https://fdc.myflorida.com/institutions/institutions-list/108", "street_address": "691 Institution Road De Funiak", "city": "Springs", "state": "FL", "zip_code": "32433-1831", "county": "Walton", "office": "Region 1", "latitude": 30.7786203, "longitude": -86.1026455, "warden": "Tony Knight", "capacity": null, "gender": "Male", "phone": "(850) 951-1300", "fax": "(850) 951-1750", "chaplain_phone": "(850) 951-1440", "warden_email": "tony.knight@fdc.myflorida.com", "general_email": "WaltonCI.WardenOffice@fdc.myflorida.com", "contact_name": "Kylia Stapp", "recruiter_email": "Kylia.Wallace@fdc.myflorida.com", "contact_phone": "(850) 951-6413", "hours": "8:00 a.m. - 2:00 p.m. CST", "programs": "Academic: Academic Technology Learning Online (ATLO); Academic: Adult Basic Education; Academic: General Educational Development (GED); Vocational: Heating, Air Conditioning and Ventilation; Vocational: Residential Carpentry/Cabinetmaking; Vocational: Work Force Development; Chaplaincy: Alcoholics Anonymous; Chaplaincy: Anger Management; Chaplaincy: Bilingual Worship Service; Chaplaincy: Catholic Study; Chaplaincy: Chapel Library Program; Chaplaincy: Chapel Music Program; Chaplaincy: Discipleship; Chaplaincy: Faith & Character Based Program; Chaplaincy: Global Leadership Summit; Chaplaincy: Hebrew-Israelite Studies; Chaplaincy: Holy Day Observation Program; Chaplaincy: Jehovah Witness Study; Chaplaincy: Jewish Sabbath; Chaplaincy: Jummah Service; Chaplaincy: Meditation; Chaplaincy: Mentoring; Chaplaincy: Messianic Studies; Chaplaincy: Narcotics Anonymous; Chaplaincy: Religious Education; Chaplaincy: Religious Volunteer Program; Chaplaincy: Special Events; Chaplaincy: Spiritual Advisor Visit Program; Chaplaincy: Worship Services" }, "geometry": { "type": "Point", "coordinates": [ -86.1026455, 30.7786203 ] } },
{ "type": "Feature", "properties": { "name": "Wakulla Correctional Institution Annex", "jurisdiction": "Florida", "agency": "Florida Department of Corrections (FDC)", "facility_url": "https://fdc.myflorida.com/institutions/institutions-list/122", "street_address": "110 Melaleuca Drive", "city": "Crawfordville", "state": "FL", "zip_code": "32327-4963", "county": "Wakulla", "office": "Region 1", "latitude": 30.2618984, "longitude": -84.1764832, "warden": "Gary Hewett", "capacity": null, "gender": "Male", "phone": "(850) 410-1895", "fax": "(850) 414-5644", "chaplain_phone": "(850) 617-0775", "warden_email": "gary.hewett@fdc.myflorida.com", "general_email": "WakullaCI@fdc.myflorida.com", "contact_name": "Lakrisha Delong", "recruiter_email": "Lakrisha.Delong@fdc.myflorida.com", "contact_phone": "(850) 617-0711", "hours": "9:00 a.m. - 3:00 p.m. EST", "programs": "Academic: Adult Basic Education; Academic: Adult Literacy; Academic: English as a Second Language (ESL); Academic: General Educational Development (GED); Academic: Wellness Education; Chaplaincy: A.A. Substance Abuse Program; Chaplaincy: Bible Study (non-Denominational); Chaplaincy: Catholic Studies; Chaplaincy: Catholic Worship Services; Chaplaincy: Celebrate Recovery; Chaplaincy: Chapel Library; Chaplaincy: Christian Worship Services; Chaplaincy: Discipleship Class; Chaplaincy: Global Leadership Summit; Chaplaincy: Harvest of Life; Chaplaincy: Jewish Sabbath; Chaplaincy: Jummah; Chaplaincy: Malachi Dads; Chaplaincy: Messianic Jewish Sabbath; Chaplaincy: Messianic Jewish Study; Chaplaincy: Miami International Theological Seminary (MINTS); Chaplaincy: Praise Team; Chaplaincy: Taaleem; Chaplaincy: The Truth Project; Chaplaincy: Video Library Religious Study; Chaplaincy: Wicca Study" }, "geometry": { "type": "Point", "coordinates": [ -84.1764832, 30.2618984 ] } },
{ "type": "Feature", "properties": { "name": "Lowell Correctional Institution", "jurisdiction": "Florida", "agency": "Florida Department of Corrections (FDC)", "facility_url": "https://fdc.myflorida.com/institutions/institutions-list/314", "street_address": "11120 NW Gainesville Rd.", "city": "Ocala", "state": "FL", "zip_code": "34482-1479", "county": "Marion", "office": "Region 3", "latitude": 29.3111178, "longitude": -82.1983856, "warden": "Shellie Baker", "capacity": 968.0, "gender": "Female", "phone": "(352) 690-8900", "fax": "(352) 401-5331", "chaplain_phone": "(352) 690-8760", "warden_email": "shellie.baker@fdc.myflorida.com", "general_email": "LowellCI.WardenOffice@fdc.myflorida.com", "contact_name": "Jessica Chapman", "recruiter_email": "Jessica.Chapman@fdc.myflorida.com", "contact_phone": "(352) 690-8676", "hours": "9:00 a.m. - 3:00 p.m. EST", "programs": "Academic: Adult Basic Education; Academic: General Educational Development (GED); Academic: Judson College; Academic: Special Education Services; Academic: Title I Services; Academic: Volunteer Literacy Program; Academic: Workforce Development; Vocational: Cosmetology; Vocational: Culinary Arts; Vocational: Electrical; Vocational: Equine Care Technology; Vocational: Heavy Equipment Operating; Vocational: Landscape Turf Management; Vocational: Manufacturing (Polk State College); Vocational: Persevere; Vocational: W.O.O.F. Advanced Dog Training/Handler; Chaplaincy: Chapel Library Program; Chaplaincy: Faith and Character; Chaplaincy: Religious Education; Chaplaincy: Worship Services" }, "geometry": { "type": "Point", "coordinates": [ -82.1983856, 29.3111178 ] } },
{ "type": "Feature", "properties": { "name": "Century Correctional Institution", "jurisdiction": "Florida", "agency": "Florida Department of Corrections (FDC)", "facility_url": "https://fdc.myflorida.com/institutions/institutions-list/106", "street_address": "400 Tedder Road", "city": "Century", "state": "FL", "zip_code": "32535-3659", "county": "Escambia", "office": "Region 1", "latitude": 30.958673, "longitude": -87.2922927, "warden": "Robert Flores", "capacity": null, "gender": "Male", "phone": "(850) 256-2600", "fax": "(850) 256-2335", "chaplain_phone": "(850) 256-6425", "warden_email": "robert.flores@fdc.myflorida.com", "general_email": "CenturyCI.WardenOffice@fdc.myflorida.com", "contact_name": "Betty Kemp", "recruiter_email": "betty.kemp@fdc.myflorida.com", "contact_phone": "(850) 256-6411", "hours": "8:00 a.m. - 2:00 p.m. CST", "programs": "Academic: Adult Basic Education; Academic: General Educational Development (GED); Academic: Library Literacy Program; Academic: Technology Lab for Continued Education Post HS/GED; Vocational: HBI-Residential Carpentry/Cabinetmaking; Vocational: IN2Work - Aramark; Vocational: Northwest Florida State College; Vocational: Pensacola State College - PRIDE Tiny Homes; Vocational: Small Business Certification; Chaplaincy: Alcoholics Anonymous; Chaplaincy: Authentic Manhood Classes; Chaplaincy: Catholic Studies/Mass; Chaplaincy: Celebrate Recovery; Chaplaincy: Chapel Library Program; Chaplaincy: Conflict Resolution; Chaplaincy: Discipleship; Chaplaincy: Faith and Character Based Dorm; Chaplaincy: Global Leadership Summit; Chaplaincy: Hebrew Israelites; Chaplaincy: Jehovah's Witness; Chaplaincy: Jewish/Messianic Jewish Services; Chaplaincy: Jummah/Taaleem; Chaplaincy: Kairos Weekends; Chaplaincy: Kolbe Retreat; Chaplaincy: One on One Mentoring; Chaplaincy: Pathway to Freedom; Chaplaincy: Praise Band; Chaplaincy: Religious Education; Chaplaincy: Spanish Services; Chaplaincy: Special Events; Chaplaincy: Truth About Drugs; Chaplaincy: Worship Services" }, "geometry": { "type": "Point", "coordinates": [ -87.2922927, 30.958673 ] } },
{ "type": "Feature", "properties": { "name": "Apalachee Correctional Institution, West Unit", "jurisdiction": "Florida", "agency": "Florida Department of Corrections (FDC)", "facility_url": "https://fdc.myflorida.com/institutions/institutions-list/101", "street_address": "52 West Unit Drive", "city": "Sneads", "state": "FL", "zip_code": "32460-4165", "county": "Jackson", "office": "Region 1", "latitude": 30.712637, "longitude": -84.885988, "warden": "David Maddox", "capacity": 680.0, "gender": "Male", "phone": "(850) 593-9702", "fax": "(850) 593-6445", "chaplain_phone": "(850) 593-9715", "warden_email": "ApalacheeCI.WardenOffice@fdc.myflorida.com", "general_email": "ApalacheeCI.WardenOffice@fdc.myflorida.com", "contact_name": "Jacquelyn Jeter", "recruiter_email": "Jacquelyn.Jeter@fdc.myflorida.com", "contact_phone": "(850) 593-9506", "hours": "8:00 a.m. - 2:00 p.m. CST", "programs": "Academic: ITAED (ABE/GED); Academic: Literacy (MLP); Academic: TABE and GED3 Testing; Chaplaincy: Anger Resolution; Chaplaincy: Bill Gothard Seminars; Chaplaincy: Experiencing God; Chaplaincy: Financial Freedom; Chaplaincy: Gavel Club; Chaplaincy: MINTS Program" }, "geometry": { "type": "Point", "coordinates": [ -84.885988, 30.712637 ] } },
{ "type": "Feature", "properties": { "name": "Bay Correctional Facility", "jurisdiction": "Florida", "agency": "Florida Department of Corrections (FDC)", "facility_url": "https://fdc.myflorida.com/institutions/institutions-list/112", "street_address": "5400 Bayline Drive Panama", "city": "City", "state": "FL", "zip_code": "32404-5492", "county": "Bay", "office": "Region 1", "latitude": 30.2667087, "longitude": -85.505527, "warden": "Jesse Williams", "capacity": 985.0, "gender": "Male", "phone": "(850) 769-1455", "fax": "", "chaplain_phone": "", "warden_email": "Jesse.Williams@mtctrains.com", "general_email": "", "contact_name": "", "recruiter_email": "", "contact_phone": "", "hours": "8:00 a.m. - 2:00 p.m. CST", "programs": "Academic: Adult Basic Education; Academic: Aztec; Academic: General Educational Development (GED); Academic: Open Office; Academic: Paxen Buss/Focus; Academic: Reading Horizons; Academic: Typing Master Pro; Vocational: FDE Horticulture/Landscape and Turf Management; Vocational: Technology Support Services" }, "geometry": { "type": "Point", "coordinates": [ -85.505527, 30.2667087 ] } },
{ "type": "Feature", "properties": { "name": "Baker Re-Entry Center", "jurisdiction": "Florida", "agency": "Florida Department of Corrections (FDC)", "facility_url": "https://fdc.myflorida.com/institutions/institutions-list/275", "street_address": "17128 U.S. Highway 90 W", "city": "Sanderson", "state": "FL", "zip_code": "32087-2359", "county": "Baker", "office": "Region 2", "latitude": 30.2329163, "longitude": -82.3177283, "warden": "Ronnie Woodall", "capacity": 432.0, "gender": "Male", "phone": "(386) 719-6300", "fax": "(386) 758-5759", "chaplain_phone": "(386) 719-6345", "warden_email": "ronnie.woodall@fdc.myflorida.com", "general_email": "BakerCI.WardenOffice@fdc.myflorida.com", "contact_name": "", "recruiter_email": "", "contact_phone": "", "hours": "9:00 a.m. - 3:00 p.m. EST", "programs": "Academic: Adult Basic Education; Academic: Career Technical Education; Academic: General Educational Development (GED) Preparation; Academic: Inmate Teaching Assistant Program; Academic: Mandated Literacy Program; Vocational: Aramark - Food Handling & Safe Serve; Vocational: Electrical Wiring; Vocational: Industrial Credentialing Education Virtually; Vocational: PRIDE Culinary Arts; Vocational: Warehouse & Logistics; Chaplaincy: Catholic Studies; Chaplaincy: Chapel Library Program; Chaplaincy: Church Eleven 22; Chaplaincy: Christ's Church; Chaplaincy: Inside Out Dads; Chaplaincy: Operation New Hope - Ready for Work; Chaplaincy: Religious Education; Chaplaincy: Worship Services" }, "geometry": { "type": "Point", "coordinates": [ -82.3177283, 30.2329163 ] } },
{ "type": "Feature", "properties": { "name": "Suwannee Correctional Institution", "jurisdiction": "Florida", "agency": "Florida Department of Corrections (FDC)", "facility_url": "https://fdc.myflorida.com/institutions/institutions-list/230", "street_address": "5964 U.S. Highway 90 Live", "city": "Oak", "state": "FL", "zip_code": "32060", "county": "Suwannee", "office": "Region 2", "latitude": 30.2401174, "longitude": -82.8691292, "warden": "Jared Cox", "capacity": null, "gender": "Male", "phone": "(386) 963-6530", "fax": "(386) 963-6240", "chaplain_phone": "(386) 963-6253", "warden_email": "jared.cox@fdc.myflorida.com", "general_email": "SuwanneeCI.WardenOffice@fdc.myflorida.com", "contact_name": "Rainy Bailey", "recruiter_email": "Rainy.Bailey@fdc.myflorida.com", "contact_phone": "(386) 963-6603", "hours": "9:00 a.m. - 3:00 p.m. EST", "programs": "Academic: Adult Basic Education (Close Management); Academic: General Educational Development (Close Management); Academic: Special Education Services (Close Management); Academic: Voluntary Literacy Program; Academic: Title I Services; Vocational: C-Tech; Vocational: Greenhouse Management; Vocational: Landscape and Turf Management; Chaplaincy: Anger Resolution Class; Chaplaincy: Chapel Library Program; Chaplaincy: Communication and Anger Management Class; Chaplaincy: New Life Behavior Classes; Chaplaincy: Parenting/Relationship Class; Chaplaincy: Personal Growth Programs; Chaplaincy: Religious Education; Chaplaincy: Religious Volunteer Program; Chaplaincy: Thinking for a Change; Chaplaincy: Victims Impact; Chaplaincy: Worship Services" }, "geometry": { "type": "Point", "coordinates": [ -82.8691292, 30.2401174 ] } },
{ "type": "Feature", "properties": { "name": "Putnam Correctional Institution", "jurisdiction": "Florida", "agency": "Florida Department of Corrections (FDC)", "facility_url": "https://fdc.myflorida.com/institutions/institutions-list/214", "street_address": "128 Yelvington Road East", "city": "Palatka", "state": "FL", "zip_code": "32131-2100", "county": "Putnam", "office": "Region 2", "latitude": 29.6453569, "longitude": -81.5863751, "warden": "Tifani Knox", "capacity": 457.0, "gender": "Male", "phone": "(386) 326-6800", "fax": "(386) 312-2219", "chaplain_phone": "(386) 326-6800", "warden_email": "tifani.knoxl@fdc.myflorida.com", "general_email": "PutnamCI.WardenOffice@fdc.myflorida.com", "contact_name": "Shawanda Coley", "recruiter_email": "shawanda.coley@fdc.myflorida.com", "contact_phone": "(386) 562-5464", "hours": "9:00 a.m. - 3:00 p.m. EST", "programs": "Academic: General Educational Development (GED); Academic: Florida Hires - Warehouse and Forklift Logistics; Academic: IFAS General Farming Program; Academic: Wellness Education; Chaplaincy: Alcoholics Anonymous; Chaplaincy: Celebration Recovery; Chaplaincy: Chapel Library Program; Chaplaincy: Faith and Character; Chaplaincy: Kairos; Chaplaincy: Men of Valor; Chaplaincy: Music Program; Chaplaincy: Narcotics Anonymous; Chaplaincy: Religious Education; Chaplaincy: TBN 2nd Chance; Chaplaincy: Toastmasters; Chaplaincy: Worship Services" }, "geometry": { "type": "Point", "coordinates": [ -81.5863751, 29.6453569 ] } },
{ "type": "Feature", "properties": { "name": "Apalachee Correctional Institution, East Unit", "jurisdiction": "Florida", "agency": "Florida Department of Corrections (FDC)", "facility_url": "https://fdc.myflorida.com/institutions/institutions-list/102", "street_address": "35 Apalachee Drive", "city": "Sneads", "state": "FL", "zip_code": "32460-4166", "county": "Jackson", "office": "Region 1", "latitude": 30.7080128, "longitude": -84.8775965, "warden": "David Maddox", "capacity": null, "gender": "Male", "phone": "(850) 718-0688", "fax": "(850) 593-6445", "chaplain_phone": "(850) 718-0713", "warden_email": "ApalacheeCI.WardenOffice@fdc.myflorida.com", "general_email": "ApalacheeCI.WardenOffice@fdc.myflorida.com", "contact_name": "Jacquelyn Jeter", "recruiter_email": "Jacquelyn.Jeter@fdc.myflorida.com", "contact_phone": "(850) 593-9506", "hours": "8:00 a.m. - 2:00 p.m. EST", "programs": "Academic: Adult Basic Education; Academic: Compass 180; Academic: Compass 180 UPDATE; Academic: General Educational Development (GED); Academic: Health & Wellness; Academic: Literacy (MLP); Academic: Pre-GED & GED Testing; Academic: Workforce Ready Readiness Program; Vocational: Cabinetmaking; Chaplaincy: Anger Resolution; Chaplaincy: Bill Gothard Seminars; Chaplaincy: Experiencing God; Chaplaincy: Financial Freedom" }, "geometry": { "type": "Point", "coordinates": [ -84.8775965, 30.7080128 ] } }
]
}
