{
"type": "FeatureCollection",
"name": "michigan_prisons",
"crs": { "type": "name", "properties": { "name": "urn:ogc:def:crs:OGC:1.3:CRS84" } },
"features": [
{ "type": "Feature", "properties": { "name": "Alger Correctional Facility", "state": "Michigan", "agency": "Michigan Department of Corrections (MDOC)", "facility_url": "https://www.michigan.gov/corrections/prisons/alger-correctional-facility", "warden": "Douglas Tasson", "street_address": "N6141 Industrial Park Drive", "city": "Munising", "zip_code": "49862", "latitude": 46.3788076, "longitude": -86.6393923, "phone": null, "opened": null }, "geometry": { "type": "Point", "coordinates": [ -86.6393923, 46.378807599999988 ] } },
{ "type": "Feature", "properties": { "name": "Baraga Correctional Facility", "state": "Michigan", "agency": "Michigan Department of Corrections (MDOC)", "facility_url": "https://www.michigan.gov/corrections/prisons/baraga-correctional-facility", "warden": "Terry Wilkins", "street_address": "13924 Wadaga Road", "city": "Baraga", "zip_code": "49908", "latitude": 46.7644319, "longitude": -88.5116985, "phone": null, "opened": null }, "geometry": { "type": "Point", "coordinates": [ -88.5116985, 46.7644319 ] } },
{ "type": "Feature", "properties": { "name": "Bellamy Creek Correctional Facility", "state": "Michigan", "agency": "Michigan Department of Corrections (MDOC)", "facility_url": "https://www.michigan.gov/corrections/prisons/bellamy-creek-correctional-facility", "warden": "Matt Macauley", "street_address": "1727 West Bluewater Highway", "city": "Ionia", "zip_code": "48846", "latitude": 42.9798022, "longitude": -85.1057688, "phone": null, "opened": null }, "geometry": { "type": "Point", "coordinates": [ -85.1057688, 42.979802199999988 ] } },
{ "type": "Feature", "properties": { "name": "Central Michigan Correctional Facility", "state": "Michigan", "agency": "Michigan Department of Corrections (MDOC)", "facility_url": "https://www.michigan.gov/corrections/prisons/central-michigan-correctional-facility", "warden": "Gary Miniard", "street_address": "320 Hubbard", "city": "St. Louis", "zip_code": "48880", "latitude": 43.4120048, "longitude": -84.5969608, "phone": null, "opened": null }, "geometry": { "type": "Point", "coordinates": [ -84.5969608, 43.4120048 ] } },
{ "type": "Feature", "properties": { "name": "Cooper Street Correctional Facility", "state": "Michigan", "agency": "Michigan Department of Corrections (MDOC)", "facility_url": "https://www.michigan.gov/corrections/prisons/cooper-street-correctional-facility", "warden": "Michelle Floyd", "street_address": "3100 Cooper St.", "city": "Jackson", "zip_code": "49201", "latitude": 42.2948332, "longitude": -84.3983006, "phone": null, "opened": null }, "geometry": { "type": "Point", "coordinates": [ -84.3983006, 42.2948332 ] } },
{ "type": "Feature", "properties": { "name": "Image of the front entrance to the Detroit Detention Center", "state": "Michigan", "agency": "Michigan Department of Corrections (MDOC)", "facility_url": "https://www.michigan.gov/corrections/prisons/detroit-detention-center", "warden": null, "street_address": "17601 Mound Road", "city": "Detroit", "zip_code": "48212", "latitude": 42.4241284, "longitude": -83.0462063, "phone": "313-596-2242", "opened": 2013.0 }, "geometry": { "type": "Point", "coordinates": [ -83.0462063, 42.4241284 ] } },
{ "type": "Feature", "properties": { "name": "Gus Harrison Correctional Facility", "state": "Michigan", "agency": "Michigan Department of Corrections (MDOC)", "facility_url": "https://www.michigan.gov/corrections/prisons/gus-harrison-correctional-facility", "warden": "Sherman Campbell", "street_address": "2727 East Beecher St.", "city": "Adrian", "zip_code": "49221", "latitude": 41.8884169, "longitude": -84.0059699, "phone": null, "opened": null }, "geometry": { "type": "Point", "coordinates": [ -84.0059699, 41.8884169 ] } },
{ "type": "Feature", "properties": { "name": "Lakeland Correctional Facility", "state": "Michigan", "agency": "Michigan Department of Corrections (MDOC)", "facility_url": "https://www.michigan.gov/corrections/prisons/lakeland-correctional-facility", "warden": "Bryan Morrison", "street_address": "141 First St.", "city": "Coldwater", "zip_code": "49036", "latitude": 41.9606076, "longitude": -84.9934549, "phone": null, "opened": null }, "geometry": { "type": "Point", "coordinates": [ -84.9934549, 41.9606076 ] } },
{ "type": "Feature", "properties": { "name": "Macomb Correctional Facility", "state": "Michigan", "agency": "Michigan Department of Corrections (MDOC)", "facility_url": "https://www.michigan.gov/corrections/prisons/macomb-correctional-facility", "warden": "Jeff Tanner", "street_address": "34625 26 Mile Road", "city": "Lenox Township", "zip_code": "48048", "latitude": 42.723372, "longitude": -82.762523, "phone": null, "opened": null }, "geometry": { "type": "Point", "coordinates": [ -82.762523, 42.723372 ] } },
{ "type": "Feature", "properties": { "name": "Oaks Correctional Facility", "state": "Michigan", "agency": "Michigan Department of Corrections (MDOC)", "facility_url": "https://www.michigan.gov/corrections/prisons/oaks-correctional-facility", "warden": "Michael Burgess", "street_address": "1500 Caberfae Highway", "city": "Manistee", "zip_code": "49660", "latitude": 44.2458087, "longitude": -86.2710885, "phone": null, "opened": null }, "geometry": { "type": "Point", "coordinates": [ -86.2710885, 44.2458087 ] } },
{ "type": "Feature", "properties": { "name": "Parnall Correctional Facility", "state": "Michigan", "agency": "Michigan Department of Corrections (MDOC)", "facility_url": "https://www.michigan.gov/corrections/prisons/parnall-correctional-facility", "warden": "Noah Nagy", "street_address": "1780 East Parnall Road", "city": "Jackson", "zip_code": "49201", "latitude": 42.2921623, "longitude": -84.3907836, "phone": null, "opened": null }, "geometry": { "type": "Point", "coordinates": [ -84.3907836, 42.2921623 ] } },
{ "type": "Feature", "properties": { "name": "Thumb Correctional Facility", "state": "Michigan", "agency": "Michigan Department of Corrections (MDOC)", "facility_url": "https://www.michigan.gov/corrections/prisons/thumb-correctional-facility", "warden": "Fredeane Artis", "street_address": "3225 John Conley Drive", "city": "Lapeer", "zip_code": "48446", "latitude": 43.0351543, "longitude": -83.3483353, "phone": null, "opened": null }, "geometry": { "type": "Point", "coordinates": [ -83.3483353, 43.035154299999988 ] } },
{ "type": "Feature", "properties": { "name": "Women's Huron Valley Correctional Facility", "state": "Michigan", "agency": "Michigan Department of Corrections (MDOC)", "facility_url": "https://www.michigan.gov/corrections/prisons/womens-huron-valley-correctional-facility", "warden": "Jeremy Howard", "street_address": "3201 Bemis Road", "city": "Ypsilanti", "zip_code": "48197", "latitude": 42.1738753, "longitude": -83.6889559, "phone": null, "opened": null }, "geometry": { "type": "Point", "coordinates": [ -83.6889559, 42.1738753 ] } }
]
}
