[
  {
    "state":"Massachusetts",
    "agency":"Massachusetts Department of Correction (MADOC)",
    "latitude":42.292466,
    "longitude":-71.10141,
    "name":"Boston Pre-Release Center",
    "phone":"(617) 822-5000",
    "street_address":"430 Canterbury Street",
    "city":"Roslindale",
    "zip_code":"02131",
    "detail_url":"https:\/\/www.mass.gov\/locations\/boston-pre-release-center",
    "facility_type":"Pre-Release Center",
    "description":"An official website of the Commonwealth of Massachusetts\u00a0\u00a0\u00a0\n\t\t\t\nHere's how you know\n\n\n\n\n\n\n\n\n\n\nOfficial websites use .mass.gov\nA .mass.gov website belongs to an official government organization in Massachusetts.\n\n\n\n \n\n\nSecure websites use HTTPS certificate\nA lock icon\n\t\t\t\t\t(\n\t\t\t\t\t\t\n\n\n\t\t\t\t\t\t)\n\t\t\t\t\tor https:\/\/ means you've safely connected to the official website. Share sensitive information only on official, secure websites.\n\n\n\n\n\n\n\n\n\n\n\n\n      Skip to main content\n    \n\n\n\n\n\n\n          Mass.gov\n    ...",
    "security_level":null,
    "gender":null
  },
  {
    "state":"Massachusetts",
    "agency":"Massachusetts Department of Correction (MADOC)",
    "latitude":41.945783,
    "longitude":-70.95262,
    "name":"Bridgewater State Hospital",
    "phone":"(508) 279-4500",
    "street_address":"20 Administration Rd.",
    "city":"Bridgewater",
    "zip_code":"02324",
    "detail_url":"https:\/\/www.mass.gov\/locations\/bridgewater-state-hospital",
    "facility_type":"State Hospital",
    "description":"An official website of the Commonwealth of Massachusetts\u00a0\u00a0\u00a0\n\t\t\t\nHere's how you know\n\n\n\n\n\n\n\n\n\n\nOfficial websites use .mass.gov\nA .mass.gov website belongs to an official government organization in Massachusetts.\n\n\n\n \n\n\nSecure websites use HTTPS certificate\nA lock icon\n\t\t\t\t\t(\n\t\t\t\t\t\t\n\n\n\t\t\t\t\t\t)\n\t\t\t\t\tor https:\/\/ means you've safely connected to the official website. Share sensitive information only on official, secure websites.\n\n\n\n\n\n\n\n\n\n\n\n\n      Skip to main content\n    \n\n\n\n\n\n\n          Mass.gov\n    ...",
    "security_level":"Medium",
    "gender":null
  },
  {
    "state":"Massachusetts",
    "agency":"Massachusetts Department of Correction (MADOC)",
    "latitude":42.299593,
    "longitude":-71.10173,
    "name":"Lemuel Shattuck Hospital Correctional Unit",
    "phone":"(617) 522-7585",
    "street_address":"180 Morton St.",
    "city":"Jamaica Plain",
    "zip_code":"02130",
    "detail_url":"https:\/\/www.mass.gov\/locations\/lemuel-shattuck-hospital-correctional-unit",
    "facility_type":"Hospital Correctional Unit",
    "description":"An official website of the Commonwealth of Massachusetts\u00a0\u00a0\u00a0\n\t\t\t\nHere's how you know\n\n\n\n\n\n\n\n\n\n\nOfficial websites use .mass.gov\nA .mass.gov website belongs to an official government organization in Massachusetts.\n\n\n\n \n\n\nSecure websites use HTTPS certificate\nA lock icon\n\t\t\t\t\t(\n\t\t\t\t\t\t\n\n\n\t\t\t\t\t\t)\n\t\t\t\t\tor https:\/\/ means you've safely connected to the official website. Share sensitive information only on official, secure websites.\n\n\n\n\n\n\n\n\n\n\n\n\n      Skip to main content\n    \n\n\n\n\n\n\n          Mass.gov\n    ...",
    "security_level":"Medium",
    "gender":"Female"
  },
  {
    "state":"Massachusetts",
    "agency":"Massachusetts Department of Correction (MADOC)",
    "latitude":41.929618,
    "longitude":-70.708406,
    "name":"MASAC at Plymouth",
    "phone":"(508) 291-2441",
    "street_address":"Myles Standish State Forest, 1 Bump Pond Rd.",
    "city":"Plymouth",
    "zip_code":"02360",
    "detail_url":"https:\/\/www.mass.gov\/locations\/masac-at-plymouth",
    "facility_type":"Substance Abuse Center",
    "description":"An official website of the Commonwealth of Massachusetts\u00a0\u00a0\u00a0\n\t\t\t\nHere's how you know\n\n\n\n\n\n\n\n\n\n\nOfficial websites use .mass.gov\nA .mass.gov website belongs to an official government organization in Massachusetts.\n\n\n\n \n\n\nSecure websites use HTTPS certificate\nA lock icon\n\t\t\t\t\t(\n\t\t\t\t\t\t\n\n\n\t\t\t\t\t\t)\n\t\t\t\t\tor https:\/\/ means you've safely connected to the official website. Share sensitive information only on official, secure websites.\n\n\n\n\n\n\n\n\n\n\n\n\n      Skip to main content\n    \n\n\n\n\n\n\n          Mass.gov\n    ...",
    "security_level":null,
    "gender":null
  },
  {
    "state":"Massachusetts",
    "agency":"Massachusetts Department of Correction (MADOC)",
    "latitude":41.946184,
    "longitude":-70.953399,
    "name":"Massachusetts Treatment Center",
    "phone":"(508) 279-8100",
    "street_address":"30 Administration Rd.",
    "city":"Bridgewater",
    "zip_code":"02324",
    "detail_url":"https:\/\/www.mass.gov\/locations\/massachusetts-treatment-center",
    "facility_type":"Treatment Center",
    "description":"An official website of the Commonwealth of Massachusetts\u00a0\u00a0\u00a0\n\t\t\t\nHere's how you know\n\n\n\n\n\n\n\n\n\n\nOfficial websites use .mass.gov\nA .mass.gov website belongs to an official government organization in Massachusetts.\n\n\n\n \n\n\nSecure websites use HTTPS certificate\nA lock icon\n\t\t\t\t\t(\n\t\t\t\t\t\t\n\n\n\t\t\t\t\t\t)\n\t\t\t\t\tor https:\/\/ means you've safely connected to the official website. Share sensitive information only on official, secure websites.\n\n\n\n\n\n\n\n\n\n\n\n\n      Skip to main content\n    \n\n\n\n\n\n\n          Mass.gov\n    ...",
    "security_level":"Medium",
    "gender":"Male"
  },
  {
    "state":"Massachusetts",
    "agency":"Massachusetts Department of Correction (MADOC)",
    "latitude":42.26683,
    "longitude":-71.407458,
    "name":"MCI-Framingham",
    "phone":"(508) 532-5100",
    "street_address":"99 Loring Dr., P.O. Box 9007",
    "city":"Framingham",
    "zip_code":"01701",
    "detail_url":"https:\/\/www.mass.gov\/locations\/mci-framingham",
    "facility_type":"Correctional Institution",
    "description":"An official website of the Commonwealth of Massachusetts\u00a0\u00a0\u00a0\n\t\t\t\nHere's how you know\n\n\n\n\n\n\n\n\n\n\nOfficial websites use .mass.gov\nA .mass.gov website belongs to an official government organization in Massachusetts.\n\n\n\n \n\n\nSecure websites use HTTPS certificate\nA lock icon\n\t\t\t\t\t(\n\t\t\t\t\t\t\n\n\n\t\t\t\t\t\t)\n\t\t\t\t\tor https:\/\/ means you've safely connected to the official website. Share sensitive information only on official, secure websites.\n\n\n\n\n\n\n\n\n\n\n\n\n      Skip to main content\n    \n\n\n\n\n\n\n          Mass.gov\n    ...",
    "security_level":"Medium",
    "gender":"Female"
  },
  {
    "state":"Massachusetts",
    "agency":"Massachusetts Department of Correction (MADOC)",
    "latitude":42.119164,
    "longitude":-71.304153,
    "name":"MCI-Norfolk",
    "phone":"(508) 660-5900",
    "street_address":"2 Clark St., P.O. Box 43",
    "city":"Norfolk",
    "zip_code":"02056",
    "detail_url":"https:\/\/www.mass.gov\/locations\/mci-norfolk",
    "facility_type":"Correctional Institution",
    "description":"An official website of the Commonwealth of Massachusetts\u00a0\u00a0\u00a0\n\t\t\t\nHere's how you know\n\n\n\n\n\n\n\n\n\n\nOfficial websites use .mass.gov\nA .mass.gov website belongs to an official government organization in Massachusetts.\n\n\n\n \n\n\nSecure websites use HTTPS certificate\nA lock icon\n\t\t\t\t\t(\n\t\t\t\t\t\t\n\n\n\t\t\t\t\t\t)\n\t\t\t\t\tor https:\/\/ means you've safely connected to the official website. Share sensitive information only on official, secure websites.\n\n\n\n\n\n\n\n\n\n\n\n\n      Skip to main content\n    \n\n\n\n\n\n\n          Mass.gov\n    ...",
    "security_level":"Medium",
    "gender":null
  },
  {
    "state":"Massachusetts",
    "agency":"Massachusetts Department of Correction (MADOC)",
    "latitude":42.543325,
    "longitude":-71.656958,
    "name":"MCI-Shirley",
    "phone":"(978) 425-4341",
    "street_address":"104 Harvard Road",
    "city":"Shirley",
    "zip_code":"01464",
    "detail_url":"https:\/\/www.mass.gov\/locations\/mci-shirley",
    "facility_type":"Correctional Institution",
    "description":"An official website of the Commonwealth of Massachusetts\u00a0\u00a0\u00a0\n\t\t\t\nHere's how you know\n\n\n\n\n\n\n\n\n\n\nOfficial websites use .mass.gov\nA .mass.gov website belongs to an official government organization in Massachusetts.\n\n\n\n \n\n\nSecure websites use HTTPS certificate\nA lock icon\n\t\t\t\t\t(\n\t\t\t\t\t\t\n\n\n\t\t\t\t\t\t)\n\t\t\t\t\tor https:\/\/ means you've safely connected to the official website. Share sensitive information only on official, secure websites.\n\n\n\n\n\n\n\n\n\n\n\n\n      Skip to main content\n    \n\n\n\n\n\n\n          Mass.gov\n    ...",
    "security_level":"Medium",
    "gender":null
  }
]