{
"type": "FeatureCollection",
"name": "north_carolina_prisons",
"crs": { "type": "name", "properties": { "name": "urn:ogc:def:crs:OGC:1.3:CRS84" } },
"features": [
{ "type": "Feature", "properties": { "name": "Alexander Correctional Institution", "county": "Alexander", "state": "North Carolina", "agency": "North Carolina Department of Adult Correction (DAC)", "facility_type": "State Prison (Close/Medium/Minimum Security)", "color_code": "Deep Purple", "facility_url": "https://www.dac.nc.gov/Adult-Corrections/Prisons/Prison-Facilities/Alexander-Correctional-Institution", "custody_level": "Alexander Correctional InstitutionClose and Minimum Custody / Male", "gender": "Male", "street_address": "633 Old Landfill Rd.", "city": "Taylorsville", "zip_code": "28681", "warden": "SVG", "capacity": 1.0, "phone": "(828) 632-1331", "latitude": 35.8842148, "longitude": -81.1770804, "reentry_facility": null }, "geometry": { "type": "Point", "coordinates": [ -81.1770804, 35.8842148 ] } },
{ "type": "Feature", "properties": { "name": "Anson Correctional Institution", "county": "Anson", "state": "North Carolina", "agency": "North Carolina Department of Adult Correction (DAC)", "facility_type": "State Prison (Close/Medium/Minimum Security)", "color_code": "Deep Purple", "facility_url": "https://www.dac.nc.gov/divisions-and-sections/prisons/prison-facilities", "custody_level": "Polkton, NC 28135Brown Creek Correctional InstitutionMinimum Custody / Reentry Facility / Male", "gender": "Male", "street_address": "552 Prison Camp Rd.", "city": "Polkton", "zip_code": "28135", "warden": null, "capacity": null, "phone": "919-733-2126", "latitude": 34.9868178, "longitude": -80.1818396, "reentry_facility": "True" }, "geometry": { "type": "Point", "coordinates": [ -80.181839599999989, 34.9868178 ] } },
{ "type": "Feature", "properties": { "name": "Brown Creek Correctional Institution", "county": "Anson", "state": "North Carolina", "agency": "North Carolina Department of Adult Correction (DAC)", "facility_type": "State Prison (Close/Medium/Minimum Security)", "color_code": "Deep Purple", "facility_url": "https://www.dac.nc.gov/divisions-and-sections/prisons/prison-facilities", "custody_level": "Brown Creek Correctional InstitutionMinimum Custody / Reentry Facility / Male", "gender": "Male", "street_address": "248 Prison Camp Rd.", "city": "Polkton", "zip_code": "28135", "warden": null, "capacity": null, "phone": "919-733-2126", "latitude": 34.9895415, "longitude": -80.1769166, "reentry_facility": "True" }, "geometry": { "type": "Point", "coordinates": [ -80.176916600000013, 34.9895415 ] } },
{ "type": "Feature", "properties": { "name": "Avery-Mitchell Correctional Institution", "county": "Avery", "state": "North Carolina", "agency": "North Carolina Department of Adult Correction (DAC)", "facility_type": "State Prison (Medium Security)", "color_code": "Light Purple", "facility_url": "https://www.dac.nc.gov/divisions-and-sections/prisons/prison-facilities", "custody_level": "Spruce Pine, NC 28777Â Mountain View Correctional InstitutionMedium Custody / Male", "gender": "Male", "street_address": "600 Amity Park Rd.", "city": "Spruce Pine", "zip_code": "28777", "warden": null, "capacity": null, "phone": "919-733-2126", "latitude": 35.9265246, "longitude": -82.0023602, "reentry_facility": null }, "geometry": { "type": "Point", "coordinates": [ -82.0023602, 35.9265246 ] } },
{ "type": "Feature", "properties": { "name": "Mountain View Correctional Institution", "county": "Avery", "state": "North Carolina", "agency": "North Carolina Department of Adult Correction (DAC)", "facility_type": "State Prison (Medium Security)", "color_code": "Light Purple", "facility_url": "https://www.dac.nc.gov/divisions-and-sections/prisons/prison-facilities", "custody_level": "Mountain View Correctional InstitutionMedium Custody / Male", "gender": "Male", "street_address": "545 Amity Park Rd.", "city": "Spruce Pine", "zip_code": "28777", "warden": null, "capacity": null, "phone": "919-733-2126", "latitude": 35.931668, "longitude": -82.003597, "reentry_facility": null }, "geometry": { "type": "Point", "coordinates": [ -82.003597, 35.931668 ] } },
{ "type": "Feature", "properties": { "name": "Bertie Correctional Institution", "county": "Bertie", "state": "North Carolina", "agency": "North Carolina Department of Adult Correction (DAC)", "facility_type": "State Prison (Close/Medium/Minimum Security)", "color_code": "Deep Purple", "facility_url": "https://www.dac.nc.gov/Adult-Corrections/Prisons/Prison-Facilities/Bertie-Correctional-Institution", "custody_level": "Bertie Correctional InstitutionClose and Medium Custody / Male", "gender": "Male", "street_address": "218 Cooper Hill Rd.", "city": "Windsor", "zip_code": "27983", "warden": "SVG", "capacity": 1.0, "phone": "252-509-0158", "latitude": 35.9754845, "longitude": -76.9083391, "reentry_facility": null }, "geometry": { "type": "Point", "coordinates": [ -76.9083391, 35.9754845 ] } },
{ "type": "Feature", "properties": { "name": "Craggy Correctional Center", "county": "Buncombe", "state": "North Carolina", "agency": "North Carolina Department of Adult Correction (DAC)", "facility_type": "State Prison (Close/Medium/Minimum Security)", "color_code": "Deep Purple", "facility_url": "https://www.dac.nc.gov/divisions-and-sections/prisons/prison-facilities", "custody_level": "Asheville, NC 28804Western Correctional Center for WomenMinimum Custody / Reentry Facility / Female", "gender": "Female", "street_address": "2992 Riverside Dr.", "city": "Asheville", "zip_code": "28804", "warden": null, "capacity": null, "phone": "919-733-2126", "latitude": 35.6631933, "longitude": -82.6154596, "reentry_facility": "True" }, "geometry": { "type": "Point", "coordinates": [ -82.6154596, 35.6631933 ] } },
{ "type": "Feature", "properties": { "name": "Western Correctional Center for Women", "county": "Buncombe", "state": "North Carolina", "agency": "North Carolina Department of Adult Correction (DAC)", "facility_type": "State Prison (Close/Medium/Minimum Security)", "color_code": "Deep Purple", "facility_url": "https://www.dac.nc.gov/divisions-and-sections/prisons/prison-facilities", "custody_level": "Western Correctional Center for WomenMinimum Custody / Reentry Facility / Female", "gender": "Female", "street_address": "55 Lake Eden Rd.", "city": "Black Mountain", "zip_code": "28711", "warden": null, "capacity": null, "phone": "919-733-2126", "latitude": 35.6135181, "longitude": -82.3719556, "reentry_facility": "True" }, "geometry": { "type": "Point", "coordinates": [ -82.3719556, 35.6135181 ] } },
{ "type": "Feature", "properties": { "name": "Foothills Correctional Institution", "county": "Burke", "state": "North Carolina", "agency": "North Carolina Department of Adult Correction (DAC)", "facility_type": "State Prison (Close/Medium/Minimum Security)", "color_code": "Deep Purple", "facility_url": "https://www.dac.nc.gov/divisions-and-sections/institutions/prison-facilities/foothills-correctional-institution", "custody_level": "Foothills Correctional InstitutionClose and Minimum Custody / Male", "gender": "Male", "street_address": "5150 Western Ave.", "city": "Morganton", "zip_code": "28655", "warden": "SVG", "capacity": 858.0, "phone": "828-438-5585", "latitude": 35.6807187, "longitude": -81.6907284, "reentry_facility": null }, "geometry": { "type": "Point", "coordinates": [ -81.6907284, 35.6807187 ] } },
{ "type": "Feature", "properties": { "name": "Caldwell Correctional Center", "county": "Caldwell", "state": "North Carolina", "agency": "North Carolina Department of Adult Correction (DAC)", "facility_type": "Correctional Center (Minimum/Reentry)", "color_code": "Light Blue", "facility_url": "https://www.dac.nc.gov/divisions-and-sections/prisons/prison-facilities/caldwell-correctional-center", "custody_level": "Caldwell Correctional CenterMinimum Custody / Reentry Facility / Male", "gender": "Male", "street_address": "480 Pleasant Hill Rd.", "city": "Lenoir", "zip_code": "28645", "warden": "SVG", "capacity": 238.0, "phone": "(828) 726-2509", "latitude": 35.8550238, "longitude": -81.5227629, "reentry_facility": "True" }, "geometry": { "type": "Point", "coordinates": [ -81.522762899999989, 35.8550238 ] } },
{ "type": "Feature", "properties": { "name": "Carteret Correctional Center", "county": "Carteret", "state": "North Carolina", "agency": "North Carolina Department of Adult Correction (DAC)", "facility_type": "Correctional Center (Minimum/Reentry)", "color_code": "Light Blue", "facility_url": "https://www.dac.nc.gov/Adult-Corrections/Prisons/Prison-Facilities/Carteret-Correctional-Center", "custody_level": "Carteret Correctional CenterMinimum Custody / Reentry Facility / Male", "gender": "Male", "street_address": "1084 Orange St.", "city": "Newport", "zip_code": "28570", "warden": "SVG", "capacity": 300.0, "phone": "(252) 223-5100", "latitude": 34.7813591, "longitude": -76.8457892, "reentry_facility": "True" }, "geometry": { "type": "Point", "coordinates": [ -76.8457892, 34.7813591 ] } },
{ "type": "Feature", "properties": { "name": "Caswell Correctional Center", "county": "Caswell", "state": "North Carolina", "agency": "North Carolina Department of Adult Correction (DAC)", "facility_type": "State Prison (Close/Medium/Minimum Security)", "color_code": "Deep Purple", "facility_url": "https://www.dac.nc.gov/divisions-and-sections/prisons/prison-facilities", "custody_level": "Blanch, NC 27212Dan River Prison Work FarmMinimum Custody / Male", "gender": "Male", "street_address": "444 Country Home Rd.", "city": "Blanch", "zip_code": "27212", "warden": null, "capacity": null, "phone": "919-733-2126", "latitude": 36.4193644, "longitude": -79.343356, "reentry_facility": null }, "geometry": { "type": "Point", "coordinates": [ -79.343356, 36.4193644 ] } },
{ "type": "Feature", "properties": { "name": "Dan River Prison Work Farm", "county": "Caswell", "state": "North Carolina", "agency": "North Carolina Department of Adult Correction (DAC)", "facility_type": "State Prison (Close/Medium/Minimum Security)", "color_code": "Deep Purple", "facility_url": "https://www.dac.nc.gov/divisions-and-sections/prisons/prison-facilities", "custody_level": "Dan River Prison Work FarmMinimum Custody / Male", "gender": "Male", "street_address": "981 Murray Rd.", "city": "Blanch", "zip_code": "27212", "warden": null, "capacity": null, "phone": "919-733-2126", "latitude": 36.4326557, "longitude": -79.346939, "reentry_facility": null }, "geometry": { "type": "Point", "coordinates": [ -79.346939, 36.4326557 ] } },
{ "type": "Feature", "properties": { "name": "Catawba Correctional Center", "county": "Catawba", "state": "North Carolina", "agency": "North Carolina Department of Adult Correction (DAC)", "facility_type": "Correctional Center (Minimum/Reentry)", "color_code": "Light Blue", "facility_url": "https://www.dac.nc.gov/Adult-Corrections/Prisons/Prison-Facilities/Catawba-Correctional-Center", "custody_level": "Catawba Correctional CenterMinimum Custody / Reentry Facility / Male", "gender": "Male", "street_address": "1347 Prison Camp Rd.", "city": "Newton", "zip_code": "28658", "warden": "SVG", "capacity": 246.0, "phone": "828-466-5521", "latitude": 35.6163465, "longitude": -81.208602, "reentry_facility": "True" }, "geometry": { "type": "Point", "coordinates": [ -81.208602, 35.6163465 ] } },
{ "type": "Feature", "properties": { "name": "Columbus Correctional Institution", "county": "Columbus", "state": "North Carolina", "agency": "North Carolina Department of Adult Correction (DAC)", "facility_type": "State Prison (Close/Medium/Minimum Security)", "color_code": "Deep Purple", "facility_url": "https://www.dac.nc.gov/divisions-and-sections/prisons/prison-facilities", "custody_level": "Whiteville, NC 28472Tabor Correctional InstitutionClose, Medium and Minimum Custody / Reentry Facility / Male", "gender": "Male", "street_address": "1255 Prison Camp Rd.", "city": "Whiteville", "zip_code": "28472", "warden": null, "capacity": null, "phone": "919-733-2126", "latitude": 34.2794483, "longitude": -78.7202902, "reentry_facility": "True" }, "geometry": { "type": "Point", "coordinates": [ -78.7202902, 34.2794483 ] } },
{ "type": "Feature", "properties": { "name": "Tabor Correctional Institution", "county": "Columbus", "state": "North Carolina", "agency": "North Carolina Department of Adult Correction (DAC)", "facility_type": "State Prison (Close/Medium/Minimum Security)", "color_code": "Deep Purple", "facility_url": "https://www.dac.nc.gov/divisions-and-sections/prisons/prison-facilities", "custody_level": "Tabor Correctional InstitutionClose, Medium and Minimum Custody / Reentry Facility / Male", "gender": "Male", "street_address": "4600 Swamp Fox Highway West", "city": "Tabor City", "zip_code": "28463", "warden": null, "capacity": null, "phone": "919-733-2126", "latitude": 34.1875035, "longitude": -78.9118155, "reentry_facility": "True" }, "geometry": { "type": "Point", "coordinates": [ -78.9118155, 34.1875035 ] } },
{ "type": "Feature", "properties": { "name": "Craven Correctional Institution", "county": "Craven", "state": "North Carolina", "agency": "North Carolina Department of Adult Correction (DAC)", "facility_type": "State Prison (Medium Security)", "color_code": "Light Purple", "facility_url": "https://www.dac.nc.gov/Adult-Corrections/Prisons/Prison-Facilities/Craven-Correctional-Institution", "custody_level": "Craven Correctional InstitutionMedium Custody / Male", "gender": "Male", "street_address": "600 Alligator Rd.", "city": "Vanceboro", "zip_code": "28586", "warden": "SVG", "capacity": 850.0, "phone": "252-244-3337", "latitude": 35.3116012, "longitude": -77.130826, "reentry_facility": null }, "geometry": { "type": "Point", "coordinates": [ -77.130826, 35.3116012 ] } },
{ "type": "Feature", "properties": { "name": "Davidson Correctional Center", "county": "Davidson", "state": "North Carolina", "agency": "North Carolina Department of Adult Correction (DAC)", "facility_type": "Correctional Center (Minimum/Reentry)", "color_code": "Light Blue", "facility_url": "https://www.dac.nc.gov/divisions-and-sections/prisons/prison-facilities", "custody_level": "Lexington, NC 27292North Piedmont CRVMinimum Custody / Female", "gender": "Female", "street_address": "1400 Thomason St.", "city": "Lexington", "zip_code": "27292", "warden": null, "capacity": null, "phone": "919-733-2126", "latitude": 35.8153779, "longitude": -80.231139, "reentry_facility": "True" }, "geometry": { "type": "Point", "coordinates": [ -80.231139, 35.8153779 ] } },
{ "type": "Feature", "properties": { "name": "North Piedmont CRV", "county": "Davidson", "state": "North Carolina", "agency": "North Carolina Department of Adult Correction (DAC)", "facility_type": "Correctional Center (Minimum/Reentry)", "color_code": "Light Blue", "facility_url": "https://www.dac.nc.gov/divisions-and-sections/prisons/prison-facilities", "custody_level": "North Piedmont CRVMinimum Custody / Female", "gender": "Female", "street_address": "1541 East Old Highway", "city": "Lexington", "zip_code": "27292", "warden": null, "capacity": null, "phone": "919-733-2126", "latitude": 35.8074815, "longitude": -80.2442431, "reentry_facility": null }, "geometry": { "type": "Point", "coordinates": [ -80.2442431, 35.8074815 ] } },
{ "type": "Feature", "properties": { "name": "Franklin Correctional Center", "county": "Franklin", "state": "North Carolina", "agency": "North Carolina Department of Adult Correction (DAC)", "facility_type": "State Prison (Medium Security)", "color_code": "Light Purple", "facility_url": "https://www.dac.nc.gov/divisions-and-sections/prisons/prison-facilities/franklin-correctional-center-0", "custody_level": "Franklin Correctional CenterMedium Custody / Male", "gender": "Male", "street_address": "5918 Hwy 39", "city": "South Bunn", "zip_code": "27508", "warden": "SVG", "capacity": 452.0, "phone": "(919) 496-6119", "latitude": 35.9478983, "longitude": -78.2477964, "reentry_facility": null }, "geometry": { "type": "Point", "coordinates": [ -78.2477964, 35.9478983 ] } },
{ "type": "Feature", "properties": { "name": "Gaston Correctional Center", "county": "Gaston", "state": "North Carolina", "agency": "North Carolina Department of Adult Correction (DAC)", "facility_type": "Correctional Center (Minimum/Reentry)", "color_code": "Light Blue", "facility_url": "https://www.dac.nc.gov/Adult-Corrections/Prisons/Prison-Facilities/Gaston-Correctional-Center", "custody_level": "Gaston Correctional CenterMinimum Custody / Reentry Facility / Male", "gender": "Male", "street_address": "520 Justice Court", "city": "Justice Court Dallas", "zip_code": "28034", "warden": "SVG", "capacity": 242.0, "phone": "704-922-3861", "latitude": 35.3135928, "longitude": -81.1942126, "reentry_facility": "True" }, "geometry": { "type": "Point", "coordinates": [ -81.1942126, 35.3135928 ] } },
{ "type": "Feature", "properties": { "name": "Granville Correctional Institution", "county": "Granville", "state": "North Carolina", "agency": "North Carolina Department of Adult Correction (DAC)", "facility_type": "State Prison (Close Security)", "color_code": "Blue", "facility_url": "https://www.dac.nc.gov/divisions-and-sections/prisons/prison-facilities/granville-correctional-institution", "custody_level": "Granville Correctional InstitutionClose Custody / Male", "gender": "Male", "street_address": "1001 Veazey Rd.", "city": "Butner", "zip_code": "27509", "warden": "SVG", "capacity": 904.0, "phone": "919-575-3070", "latitude": 36.1366352, "longitude": -78.7857961, "reentry_facility": null }, "geometry": { "type": "Point", "coordinates": [ -78.7857961, 36.1366352 ] } },
{ "type": "Feature", "properties": { "name": "Eastern Correctional Institution", "county": "Greene", "state": "North Carolina", "agency": "North Carolina Department of Adult Correction (DAC)", "facility_type": "State Prison (Close/Medium/Minimum Security)", "color_code": "Deep Purple", "facility_url": "https://www.dac.nc.gov/divisions-and-sections/prisons/prison-facilities", "custody_level": "Maury Correctional InstitutionClose, Medium Custody / Male", "gender": "Male", "street_address": "2821 NC Hwy.", "city": "Maury", "zip_code": "28554", "warden": null, "capacity": null, "phone": "919-733-2126", "latitude": 35.4798669, "longitude": -77.585941, "reentry_facility": "True" }, "geometry": { "type": "Point", "coordinates": [ -77.585941, 35.4798669 ] } },
{ "type": "Feature", "properties": { "name": "Greene Correctional Institution", "county": "Greene", "state": "North Carolina", "agency": "North Carolina Department of Adult Correction (DAC)", "facility_type": "State Prison (Close/Medium/Minimum Security)", "color_code": "Deep Purple", "facility_url": "https://www.dac.nc.gov/divisions-and-sections/prisons/prison-facilities", "custody_level": "Maury Correctional InstitutionClose, Medium Custody / Male", "gender": "Male", "street_address": "2699 NC Hwy.", "city": "Maury", "zip_code": "28554", "warden": null, "capacity": null, "phone": "919-733-2126", "latitude": 35.4798669, "longitude": -77.585941, "reentry_facility": "True" }, "geometry": { "type": "Point", "coordinates": [ -77.585941, 35.4798669 ] } },
{ "type": "Feature", "properties": { "name": "Maury Correctional Institution", "county": "Greene", "state": "North Carolina", "agency": "North Carolina Department of Adult Correction (DAC)", "facility_type": "State Prison (Close/Medium/Minimum Security)", "color_code": "Deep Purple", "facility_url": "https://www.dac.nc.gov/divisions-and-sections/prisons/prison-facilities", "custody_level": "Maury Correctional InstitutionClose, Medium Custody / Male", "gender": "Male", "street_address": "2568 Moore Rouse Road", "city": "Moore Rouse Road Hookerton", "zip_code": "28538", "warden": null, "capacity": null, "phone": "919-733-2126", "latitude": 35.4472145, "longitude": -77.6070368, "reentry_facility": null }, "geometry": { "type": "Point", "coordinates": [ -77.6070368, 35.4472145 ] } },
{ "type": "Feature", "properties": { "name": "Roanoke River Correctional Institution", "county": "Halifax", "state": "North Carolina", "agency": "North Carolina Department of Adult Correction (DAC)", "facility_type": "State Prison (Close/Medium/Minimum Security)", "color_code": "Deep Purple", "facility_url": "https://www.dac.nc.gov/divisions-and-sections/prisons/prison-facilities/roanoke-river-correctional-institution", "custody_level": "Roanoke River Correctional InstitutionMedium and Minimum Custody / Male", "gender": "Male", "street_address": "2787 Caledonia Dr.", "city": "Tillery", "zip_code": "27882", "warden": "SVG", "capacity": 1038.0, "phone": "252-826-5621", "latitude": 36.3020011, "longitude": -77.4540023, "reentry_facility": null }, "geometry": { "type": "Point", "coordinates": [ -77.4540023, 36.3020011 ] } },
{ "type": "Feature", "properties": { "name": "Hyde Correctional Institution", "county": "Hyde", "state": "North Carolina", "agency": "North Carolina Department of Adult Correction (DAC)", "facility_type": "State Prison (Close/Medium/Minimum Security)", "color_code": "Deep Purple", "facility_url": "https://www.dac.nc.gov/Adult-Corrections/Prisons/Prison-Facilities/Hyde-Correctional-Institution", "custody_level": "Hyde Correctional InstitutionMinimum Custody / Male", "gender": "Male", "street_address": "620 Prison Rd.", "city": "Fairfield", "zip_code": "27826", "warden": "SVG", "capacity": 648.0, "phone": "252-926-1810", "latitude": 35.5410985, "longitude": -76.224353, "reentry_facility": null }, "geometry": { "type": "Point", "coordinates": [ -76.224353, 35.5410985 ] } },
{ "type": "Feature", "properties": { "name": "Johnston Correctional Institution", "county": "Johnston", "state": "North Carolina", "agency": "North Carolina Department of Adult Correction (DAC)", "facility_type": "Correctional Center (Minimum/Reentry)", "color_code": "Light Blue", "facility_url": "https://www.dac.nc.gov/Adult-Corrections/Prisons/Prison-Facilities/Johnston-Correctional-Institution", "custody_level": "Johnston Correctional InstitutionMinimum Custody / Reentry Facility / Male", "gender": "Male", "street_address": "794 Turnage Rd.", "city": "Smithfield", "zip_code": "27577", "warden": "SVG", "capacity": 640.0, "phone": "984-201-8200", "latitude": 35.5570879, "longitude": -78.3284242, "reentry_facility": "True" }, "geometry": { "type": "Point", "coordinates": [ -78.3284242, 35.5570879 ] } },
{ "type": "Feature", "properties": { "name": "Sanford Correctional Center", "county": "Lee", "state": "North Carolina", "agency": "North Carolina Department of Adult Correction (DAC)", "facility_type": "Correctional Center (Minimum/Reentry)", "color_code": "Light Blue", "facility_url": "https://www.dac.nc.gov/Adult-Corrections/Prisons/Prison-Facilities/Sanford-Correctional-Center", "custody_level": "Sanford Correctional CenterMinimum Custody / Reentry Facility / Male", "gender": "Male", "street_address": "417 Advancement Center Rd.", "city": "Sanford", "zip_code": "27330", "warden": "SVG", "capacity": 298.0, "phone": "919-895-7036", "latitude": 35.4730771, "longitude": -79.1583807, "reentry_facility": "True" }, "geometry": { "type": "Point", "coordinates": [ -79.1583807, 35.4730771 ] } },
{ "type": "Feature", "properties": { "name": "Lincoln Correctional Center", "county": "Lincoln", "state": "North Carolina", "agency": "North Carolina Department of Adult Correction (DAC)", "facility_type": "Correctional Center (Minimum/Reentry)", "color_code": "Light Blue", "facility_url": "https://www.dac.nc.gov/Adult-Corrections/Prisons/Prison-Facilities/Lincoln-Correctional-Center", "custody_level": "Lincoln Correctional CenterMinimum Custody / Reentry Facility / Male", "gender": "Male", "street_address": "464 Roper Dr.", "city": "Lincolnton", "zip_code": "28092", "warden": "SVG", "capacity": 202.0, "phone": "704-735-0485", "latitude": 35.4839773, "longitude": -81.2360245, "reentry_facility": "True" }, "geometry": { "type": "Point", "coordinates": [ -81.2360245, 35.4839773 ] } },
{ "type": "Feature", "properties": { "name": "Avery-Mitchell Correctional Institution", "county": "Mitchell", "state": "North Carolina", "agency": "North Carolina Department of Adult Correction (DAC)", "facility_type": "State Prison (Medium Security)", "color_code": "Light Purple", "facility_url": "https://www.dac.nc.gov/divisions-and-sections/prisons/prison-facilities", "custody_level": "Spruce Pine, NC 28777Mountain View Correctional InstitutionMedium Custody / Male", "gender": "Male", "street_address": "600 Amity Park Rd.", "city": "Spruce Pine", "zip_code": "28777", "warden": null, "capacity": null, "phone": "919-733-2126", "latitude": 35.9265246, "longitude": -82.0023602, "reentry_facility": null }, "geometry": { "type": "Point", "coordinates": [ -82.0023602, 35.9265246 ] } },
{ "type": "Feature", "properties": { "name": "Mountain View Correctional Institution", "county": "Mitchell", "state": "North Carolina", "agency": "North Carolina Department of Adult Correction (DAC)", "facility_type": "State Prison (Medium Security)", "color_code": "Light Purple", "facility_url": "https://www.dac.nc.gov/divisions-and-sections/prisons/prison-facilities", "custody_level": "Mountain View Correctional InstitutionMedium Custody / Male", "gender": "Male", "street_address": "545 Amity Park Rd.", "city": "Spruce Pine", "zip_code": "28777", "warden": null, "capacity": null, "phone": "919-733-2126", "latitude": 35.931668, "longitude": -82.003597, "reentry_facility": null }, "geometry": { "type": "Point", "coordinates": [ -82.003597, 35.931668 ] } },
{ "type": "Feature", "properties": { "name": "Southern Correctional Institution", "county": "Montgomery", "state": "North Carolina", "agency": "North Carolina Department of Adult Correction (DAC)", "facility_type": "State Prison (Close/Medium/Minimum Security)", "color_code": "Deep Purple", "facility_url": "https://www.dac.nc.gov/Adult-Corrections/Prisons/Prison-Facilities/Southern-Correctional-Institution", "custody_level": "Southern Correctional InstitutionClose Custody / Male", "gender": "Male", "street_address": "272 Glen Rd.", "city": "Troy", "zip_code": "27371", "warden": "SVG", "capacity": 664.0, "phone": "910-572-3784", "latitude": 35.3782959, "longitude": -79.8736798, "reentry_facility": null }, "geometry": { "type": "Point", "coordinates": [ -79.8736798, 35.3782959 ] } },
{ "type": "Feature", "properties": { "name": "Nash Correctional Institution", "county": "Nash", "state": "North Carolina", "agency": "North Carolina Department of Adult Correction (DAC)", "facility_type": "State Prison (Medium Security)", "color_code": "Light Purple", "facility_url": "https://www.dac.nc.gov/divisions-and-sections/prisons/prison-facilities/nash-correctional-institution-0", "custody_level": "Nash Correctional InstitutionMedium Custody / Male", "gender": "Male", "street_address": "2869 US Hwy.", "city": "Nashville", "zip_code": "27856", "warden": "SVG", "capacity": 654.0, "phone": "252-459-4455", "latitude": 35.9781121, "longitude": -77.9759487, "reentry_facility": null }, "geometry": { "type": "Point", "coordinates": [ -77.9759487, 35.9781121 ] } },
{ "type": "Feature", "properties": { "name": "Pasquotank Correctional Institution", "county": "Pasquotank", "state": "North Carolina", "agency": "North Carolina Department of Adult Correction (DAC)", "facility_type": "State Prison (Close/Medium/Minimum Security)", "color_code": "Deep Purple", "facility_url": "https://www.dac.nc.gov/Adult-Corrections/Prisons/Prison-Facilities/Pasquotank-Correctional-Institution", "custody_level": "Pasquotank Correctional InstitutionClose and Minimum Custody / Male", "gender": "Male", "street_address": "527 Commerce Dr.", "city": "Elizabeth City", "zip_code": "27906", "warden": "SVG", "capacity": 896.0, "phone": "252-331-4881", "latitude": 36.3609973, "longitude": -76.3107585, "reentry_facility": null }, "geometry": { "type": "Point", "coordinates": [ -76.3107585, 36.3609973 ] } },
{ "type": "Feature", "properties": { "name": "Lumberton Correctional Institution", "county": "Robeson", "state": "North Carolina", "agency": "North Carolina Department of Adult Correction (DAC)", "facility_type": "State Prison (Close/Medium/Minimum Security)", "color_code": "Deep Purple", "facility_url": "https://www.dac.nc.gov/divisions-and-sections/prisons/prison-facilities", "custody_level": "Lumberton, NC 28358Robeson CRVMinimum Custody / Male", "gender": "Male", "street_address": "175 Legend Rd.", "city": "Lumberton", "zip_code": "28358", "warden": null, "capacity": null, "phone": "919-733-2126", "latitude": 34.5910064, "longitude": -79.0522957, "reentry_facility": null }, "geometry": { "type": "Point", "coordinates": [ -79.0522957, 34.5910064 ] } },
{ "type": "Feature", "properties": { "name": "Robeson CRV", "county": "Robeson", "state": "North Carolina", "agency": "North Carolina Department of Adult Correction (DAC)", "facility_type": "State Prison (Close/Medium/Minimum Security)", "color_code": "Deep Purple", "facility_url": "https://www.dac.nc.gov/divisions-and-sections/prisons/prison-facilities", "custody_level": "Robeson CRVMinimum Custody / Male", "gender": "Male", "street_address": "803 Hwy 711", "city": "Lumberton", "zip_code": "28359", "warden": null, "capacity": null, "phone": "919-733-2126", "latitude": 34.6251359, "longitude": -79.0737958, "reentry_facility": null }, "geometry": { "type": "Point", "coordinates": [ -79.073795800000013, 34.6251359 ] } },
{ "type": "Feature", "properties": { "name": "Piedmont Correctional Institution", "county": "Rowan", "state": "North Carolina", "agency": "North Carolina Department of Adult Correction (DAC)", "facility_type": "State Prison (Close/Medium/Minimum Security)", "color_code": "Deep Purple", "facility_url": "https://www.dac.nc.gov/Adult-Corrections/Prisons/Prison-Facilities/Piedmont-Correctional-Institution", "custody_level": "Piedmont Correctional InstitutionMedium and Minimum Custody / Male", "gender": "Male", "street_address": "1245 Camp Rd.", "city": "Salisbury", "zip_code": "28147", "warden": "SVG", "capacity": 952.0, "phone": "704-639-7540", "latitude": 35.6218692, "longitude": -80.5457513, "reentry_facility": null }, "geometry": { "type": "Point", "coordinates": [ -80.5457513, 35.6218692 ] } },
{ "type": "Feature", "properties": { "name": "Rutherford Correctional Center", "county": "Rutherford", "state": "North Carolina", "agency": "North Carolina Department of Adult Correction (DAC)", "facility_type": "Correctional Center (Minimum/Reentry)", "color_code": "Light Blue", "facility_url": "https://www.dac.nc.gov/Adult-Corrections/Prisons/Prison-Facilities/Rutherford-Correctional-Center", "custody_level": "Rutherford Correctional CenterMinimum Custody / Reentry Facility / Male", "gender": "Male", "street_address": "549 Ledbetter Rd.", "city": "Spindale", "zip_code": "28160", "warden": "SVG", "capacity": 236.0, "phone": "828-286-4121", "latitude": 35.3645567, "longitude": -81.9148524, "reentry_facility": "True" }, "geometry": { "type": "Point", "coordinates": [ -81.9148524, 35.3645567 ] } },
{ "type": "Feature", "properties": { "name": "Scotland Correctional Institution", "county": "Scotland", "state": "North Carolina", "agency": "North Carolina Department of Adult Correction (DAC)", "facility_type": "State Prison (Close/Medium/Minimum Security)", "color_code": "Deep Purple", "facility_url": "https://www.dac.nc.gov/Adult-Corrections/Prisons/Prison-Facilities/Scotland-Correctional-Institution", "custody_level": "Scotland Correctional InstitutionClose, Medium and Minimum Custody / Male", "gender": "Male", "street_address": "22385 McGirts Bridge Rd.", "city": "Laurinburg", "zip_code": "28353", "warden": null, "capacity": 1.0, "phone": "910-390-4700", "latitude": 34.8114629, "longitude": -79.3641117, "reentry_facility": null }, "geometry": { "type": "Point", "coordinates": [ -79.3641117, 34.8114629 ] } },
{ "type": "Feature", "properties": { "name": "Albemarle Correctional Institution", "county": "Stanly", "state": "North Carolina", "agency": "North Carolina Department of Adult Correction (DAC)", "facility_type": "State Prison (Medium Security)", "color_code": "Light Purple", "facility_url": "https://www.dac.nc.gov/divisions-and-sections/prisons/prison-facilities/albemarle-correctional-institution", "custody_level": "Albemarle Correctional InstitutionMedium Custody / Reentry Facility / Male", "gender": "Male", "street_address": "44150 Airport Rd.", "city": "New London", "zip_code": "28127", "warden": "SVG", "capacity": 624.0, "phone": "704-244-8700", "latitude": 35.4165497, "longitude": -80.1359095, "reentry_facility": "True" }, "geometry": { "type": "Point", "coordinates": [ -80.1359095, 35.4165497 ] } },
{ "type": "Feature", "properties": { "name": "Tyrrell Prison Work Farm", "county": "Tyrrell", "state": "North Carolina", "agency": "North Carolina Department of Adult Correction (DAC)", "facility_type": "Correctional Center (Minimum/Reentry)", "color_code": "Light Blue", "facility_url": "https://www.dac.nc.gov/divisions-and-sections/prisons/prison-facilities/tyrrell-prison-work-farm-0", "custody_level": "Tyrrell Prison Work FarmMinimum Custody / Male", "gender": "Male", "street_address": "620 Snell Rd.", "city": "Columbia", "zip_code": "27925", "warden": null, "capacity": 620.0, "phone": "252-796-1085", "latitude": 35.9581139, "longitude": -76.2286069, "reentry_facility": null }, "geometry": { "type": "Point", "coordinates": [ -76.2286069, 35.9581139 ] } },
{ "type": "Feature", "properties": { "name": "Central Prison", "county": "Wake", "state": "North Carolina", "agency": "North Carolina Department of Adult Correction (DAC)", "facility_type": "State Prison (Close/Medium/Minimum Security)", "color_code": "Deep Purple", "facility_url": "https://www.dac.nc.gov/divisions-and-sections/prisons/prison-facilities", "custody_level": "Raleigh NC 27610Wake Correctional CenterMinimum Custody / Male", "gender": "Male", "street_address": "1300 Western Blvd.", "city": "Raleigh", "zip_code": "27606", "warden": null, "capacity": null, "phone": "919-733-2126", "latitude": 35.7763147, "longitude": -78.6562811, "reentry_facility": "True" }, "geometry": { "type": "Point", "coordinates": [ -78.6562811, 35.7763147 ] } },
{ "type": "Feature", "properties": { "name": "North Carolina Correctional Institution for Women", "county": "Wake", "state": "North Carolina", "agency": "North Carolina Department of Adult Correction (DAC)", "facility_type": "State Prison (Close/Medium/Minimum Security)", "color_code": "Deep Purple", "facility_url": "https://www.dac.nc.gov/divisions-and-sections/prisons/prison-facilities", "custody_level": "Raleigh NC 27610Wake Correctional CenterMinimum Custody / Male", "gender": "Male", "street_address": "1034 Bragg St.", "city": "Raleigh", "zip_code": "27610", "warden": null, "capacity": null, "phone": "919-733-2126", "latitude": 35.7658031, "longitude": -78.6220335, "reentry_facility": "True" }, "geometry": { "type": "Point", "coordinates": [ -78.622033500000015, 35.7658031 ] } },
{ "type": "Feature", "properties": { "name": "Wake Correctional Center", "county": "Wake", "state": "North Carolina", "agency": "North Carolina Department of Adult Correction (DAC)", "facility_type": "State Prison (Close/Medium/Minimum Security)", "color_code": "Deep Purple", "facility_url": "https://www.dac.nc.gov/divisions-and-sections/prisons/prison-facilities", "custody_level": "Wake Correctional CenterMinimum Custody / Male", "gender": "Male", "street_address": "1000 Rock Quarry Rd.", "city": "Raleigh", "zip_code": "27610", "warden": null, "capacity": null, "phone": "919-733-2126", "latitude": 35.7652986, "longitude": -78.6168206, "reentry_facility": null }, "geometry": { "type": "Point", "coordinates": [ -78.6168206, 35.7652986 ] } }
]
}
